,state,division_name,polling_place_name,premises_suburb,latitude,longitude,geom
13,NSW,Banks,Oatley,OATLEY,-33.9847,151.081,POINT (-33.9847 151.081)
15,NSW,Chifley,Dharruk,DHARRUK,-33.7475,150.817,POINT (-33.7475 150.817)
16,NSW,Banks,Allawah,ALLAWAH,-33.9767897,151.1148974,POINT (-33.9767897 151.1148974)
17,NSW,Banks,Allawah South,SOUTH HURSTVILLE,-33.9756,151.111,POINT (-33.9756 151.111)
18,NSW,Banks,Beverly Hills North (Banks),BEVERLY HILLS,-33.9413,151.075,POINT (-33.9413 151.075)
19,NSW,Banks,Beverly Hills South (Banks),BEVERLY HILLS,-33.9528,151.085,POINT (-33.9528 151.085)
20,NSW,Banks,Blakehurst North,BLAKEHURST,-33.9814,151.113,POINT (-33.9814 151.113)
21,NSW,Banks,BLV Banks PPVC,HURSTVILLE,-33.9674459,151.1065776,POINT (-33.9674459 151.1065776)
22,NSW,Banks,Carlton South (Banks),CARLTON,-33.9727,151.128,POINT (-33.9727 151.128)
23,NSW,Banks,Carlton West,CARLTON,-33.9763447,151.1206652,POINT (-33.9763447 151.1206652)
24,NSW,Banks,Connells Point (Banks),CONNELLS POINT,-33.9855,151.1,POINT (-33.9855 151.1)
25,NSW,Banks,Divisional Office (PREPOLL),HURSTVILLE,-33.9676291,151.1064478,POINT (-33.9676291 151.1064478)
26,NSW,Banks,East Hills,EAST HILLS,-33.9611817,150.982054,POINT (-33.9611817 150.982054)
27,NSW,Banks,Hurstville (Banks),HURSTVILLE,-33.9642,151.102,POINT (-33.9642 151.102)
28,NSW,Banks,Hurstville BANKS PPVC,HURSTVILLE,-33.9663791,151.1068363,POINT (-33.9663791 151.1068363)
29,NSW,Banks,Hurstville East (Banks),HURSTVILLE,-33.9641,151.111,POINT (-33.9641 151.111)
30,NSW,Banks,Hurstville Grove,PENSHURST,-33.9729154,151.0909386,POINT (-33.9729154 151.0909386)
31,NSW,Banks,Hurstville South,HURSTVILLE,-33.9726,151.099,POINT (-33.9726 151.099)
32,NSW,Banks,Lugarno,LUGARNO,-33.985015,151.0454806,POINT (-33.985015 151.0454806)
33,NSW,Banks,Mortdale Central,MORTDALE,-33.9748397,151.0781603,POINT (-33.9748397 151.0781603)
34,NSW,Banks,Mortdale East,MORTDALE,-33.9727,151.081,POINT (-33.9727 151.081)
35,NSW,Banks,Mortdale West,MORTDALE,-33.9615619,151.0731878,POINT (-33.9615619 151.0731878)
36,NSW,Banks,Narwee,NARWEE,-33.9482,151.069,POINT (-33.9482 151.069)
37,NSW,Banks,Oatley East,OATLEY,-33.9841934,151.082371,POINT (-33.9841934 151.082371)
38,NSW,Banks,Oatley West,OATLEY,-33.9796,151.065,POINT (-33.9796 151.065)
39,NSW,Banks,Padstow,PADSTOW,-33.9542,151.031,POINT (-33.9542 151.031)
40,NSW,Banks,Padstow Central,PADSTOW,-33.95572,151.031707,POINT (-33.95572 151.031707)
41,NSW,Banks,Padstow East,PADSTOW,-33.949,151.03,POINT (-33.949 151.03)
42,NSW,Banks,Padstow PPVC,PADSTOW,-33.9480237,151.0259414,POINT (-33.9480237 151.0259414)
43,NSW,Banks,Padstow South,PADSTOW HEIGHTS,-33.9664348,151.0305364,POINT (-33.9664348 151.0305364)
44,NSW,Banks,Panania,PANANIA,-33.9551,150.999,POINT (-33.9551 150.999)
45,NSW,Banks,Panania Central,PANANIA,-33.9519,150.998,POINT (-33.9519 150.998)
46,NSW,Banks,Panania North,PANANIA,-33.9451,150.999,POINT (-33.9451 150.999)
47,NSW,Banks,Panania South,PANANIA,-33.9661,151.0,POINT (-33.9661 151)
48,NSW,Banks,Peakhurst East,PEAKHURST,-33.9553,151.061,POINT (-33.9553 151.061)
49,NSW,Banks,Peakhurst South,PEAKHURST HEIGHTS,-33.9728147,151.0555257,POINT (-33.9728147 151.0555257)
50,NSW,Banks,Peakhurst West,PEAKHURST,-33.9616492,151.0489593,POINT (-33.9616492 151.0489593)
51,NSW,Banks,Penshurst,PENSHURST,-33.962239,151.086054,POINT (-33.962239 151.086054)
52,NSW,Banks,Penshurst Central,PENSHURST,-33.9641,151.087,POINT (-33.9641 151.087)
53,NSW,Banks,Picnic Point North,PICNIC POINT,-33.9649,151.01,POINT (-33.9649 151.01)
54,NSW,Banks,Picnic Point South,PICNIC POINT,-33.9804039,150.9967331,POINT (-33.9804039 150.9967331)
55,NSW,Banks,Revesby,REVESBY,-33.9542157,151.0166996,POINT (-33.9542157 151.0166996)
56,NSW,Banks,Revesby North (Banks),REVESBY,-33.9447,151.017,POINT (-33.9447 151.017)
57,NSW,Banks,Revesby South,REVESBY,-33.9605,151.017,POINT (-33.9605 151.017)
58,NSW,Banks,Riverwood East (Banks),RIVERWOOD,-33.9459,151.058,POINT (-33.9459 151.058)
59,NSW,Banks,Riverwood North,RIVERWOOD,-33.9476795,151.047088,POINT (-33.9476795 151.047088)
60,NSW,Banks,Riverwood South,RIVERWOOD,-33.9524734,151.0532173,POINT (-33.9524734 151.0532173)
62,NSW,Banks,Sydney (Banks),SYDNEY,-33.8730501,151.2064528,POINT (-33.8730501 151.2064528)
63,NSW,Banks,Sydney BANKS PPVC,SYDNEY,-33.8638565,151.2092587,POINT (-33.8638565 151.2092587)
64,NSW,Barton,Arncliffe,ARNCLIFFE,-33.938,151.144,POINT (-33.938 151.144)
65,NSW,Barton,Arncliffe Central,ARNCLIFFE,-33.9406,151.147,POINT (-33.9406 151.147)
66,NSW,Barton,Arncliffe North,ARNCLIFFE,-33.939642,151.143493,POINT (-33.939642 151.143493)
67,NSW,Barton,Arncliffe West,ARNCLIFFE,-33.9374,151.138,POINT (-33.9374 151.138)
68,NSW,Barton,Bardwell Park,BARDWELL PARK,-33.9338,151.125,POINT (-33.9338 151.125)
69,NSW,Barton,Belmore BARTON PPVC,BELMORE,-33.913395,151.104419,POINT (-33.913395 151.104419)
70,NSW,Barton,Beverly Hills,BEVERLY HILLS,-33.9492,151.083,POINT (-33.9492 151.083)
71,NSW,Barton,Beverly Hills Central,BEVERLY HILLS,-33.947,151.079,POINT (-33.947 151.079)
72,NSW,Barton,Beverly Hills South (Barton),BEVERLY HILLS,-33.9528,151.085,POINT (-33.9528 151.085)
73,NSW,Barton,Bexley,BEXLEY,-33.9515,151.125,POINT (-33.9515 151.125)
74,NSW,Barton,Bexley East,BEXLEY,-33.9467,151.128,POINT (-33.9467 151.128)
75,NSW,Barton,Bexley North,BEXLEY NORTH,-33.9407,151.121,POINT (-33.9407 151.121)
76,NSW,Barton,Bexley North Park,BEXLEY NORTH,-33.9383,151.109,POINT (-33.9383 151.109)
77,NSW,Barton,Bexley South,BEXLEY,-33.9625,151.113,POINT (-33.9625 151.113)
78,NSW,Barton,Bexley West,BEXLEY,-33.9522,151.114,POINT (-33.9522 151.114)
79,NSW,Barton,BLV Barton PPVC,ROCKDALE,-33.9527866,151.1392016,POINT (-33.9527866 151.1392016)
80,NSW,Barton,Brighton-Le-Sands (Barton),BRIGHTON-LE-SANDS,-33.9627,151.148,POINT (-33.9627 151.148)
81,NSW,Barton,Brighton North,BRIGHTON-LE-SANDS,-33.9605,151.154,POINT (-33.9605 151.154)
82,NSW,Barton,Canterbury South,CANTERBURY,-33.9175,151.116,POINT (-33.9175 151.116)
83,NSW,Barton,Carlton,BEXLEY,-33.9624,151.124,POINT (-33.9624 151.124)
84,NSW,Barton,Carlton South (Barton),CARLTON,-33.9727,151.128,POINT (-33.9727 151.128)
85,NSW,Barton,Central Sydney BARTON PPVC,HAYMARKET,-33.8824351,151.2063239,POINT (-33.8824351 151.2063239)
86,NSW,Barton,Clemton Park,KINGSGROVE,-33.92951,151.10897,POINT (-33.92951 151.10897)
87,NSW,Barton,Clemton Park West,KINGSGROVE,-33.9303611,151.099589,POINT (-33.9303611 151.099589)
88,NSW,Barton,Divisional Office (PREPOLL),ROCKDALE,-33.9529008,151.1391306,POINT (-33.9529008 151.1391306)
89,NSW,Barton,Earlwood,EARLWOOD,-33.9274,151.123,POINT (-33.9274 151.123)
90,NSW,Barton,Earlwood Central,EARLWOOD,-33.9281,151.127,POINT (-33.9281 151.127)
91,NSW,Barton,Earlwood South,EARLWOOD,-33.9283,151.124,POINT (-33.9283 151.124)
92,NSW,Barton,Hurlstone Park (Barton),HURLSTONE PARK,-33.908507,151.132444,POINT (-33.908507 151.132444)
93,NSW,Barton,Hurstville (Barton),HURSTVILLE,-33.9642,151.102,POINT (-33.9642 151.102)
94,NSW,Barton,Hurstville BARTON PPVC,HURSTVILLE,-33.9649241,151.1031761,POINT (-33.9649241 151.1031761)
95,NSW,Barton,Hurstville East (Barton),HURSTVILLE,-33.9641,151.111,POINT (-33.9641 151.111)
96,NSW,Barton,Hurstville North,HURSTVILLE,-33.9544,151.096,POINT (-33.9544 151.096)
97,NSW,Barton,Kingsgrove,KINGSGROVE,-33.9401,151.103,POINT (-33.9401 151.103)
98,NSW,Barton,Kingsgrove North (Barton),KINGSGROVE,-33.93385,151.09621,POINT (-33.93385 151.09621)
99,NSW,Barton,Kingsgrove South,KINGSGROVE,-33.9494,151.102,POINT (-33.9494 151.102)
100,NSW,Barton,Kogarah Central,KOGARAH,-33.9616,151.136,POINT (-33.9616 151.136)
101,NSW,Barton,Kyeemagh,KYEEMAGH,-33.9497,151.161,POINT (-33.9497 151.161)
102,NSW,Barton,Marrickville BARTON PPVC,MARRICKVILLE,-33.913688,151.161852,POINT (-33.913688 151.161852)
103,NSW,Barton,Marrickville Park,MARRICKVILLE,-33.9154803,151.1503777,POINT (-33.9154803 151.1503777)
104,NSW,Barton,Marrickville South,MARRICKVILLE,-33.9207,151.152,POINT (-33.9207 151.152)
105,NSW,Barton,Marrickville West,MARRICKVILLE,-33.9144,151.146,POINT (-33.9144 151.146)
106,NSW,Barton,Rockdale,ROCKDALE,-33.9527,151.142,POINT (-33.9527 151.142)
107,NSW,Barton,Rockdale BARTON PPVC,ROCKDALE,-33.9512665,151.1364055,POINT (-33.9512665 151.1364055)
108,NSW,Barton,Rockdale Central,ROCKDALE,-33.9537,151.139,POINT (-33.9537 151.139)
109,NSW,Barton,Rockdale City,ROCKDALE,-33.9505248,151.139653,POINT (-33.9505248 151.139653)
110,NSW,Barton,Rockdale West,ROCKDALE,-33.9504,151.136,POINT (-33.9504 151.136)
111,NSW,Barton,Sydney (Barton),SYDNEY,-33.8730501,151.2064528,POINT (-33.8730501 151.2064528)
112,NSW,Barton,Sydney BARTON PPVC,SYDNEY,-33.8638565,151.2092587,POINT (-33.8638565 151.2092587)
113,NSW,Barton,Tempe,TEMPE,-33.919948,151.1610947,POINT (-33.919948 151.1610947)
114,NSW,Barton,Turrella,TURRELLA,-33.931874,151.1452122,POINT (-33.931874 151.1452122)
115,NSW,Barton,Undercliffe,EARLWOOD,-33.9244,151.139,POINT (-33.9244 151.139)
116,NSW,Bennelong,BLV Bennelong PPVC,CHATSWOOD,-33.7981824,151.1818539,POINT (-33.7981824 151.1818539)
117,NSW,Bennelong,Carlingford (Bennelong),CARLINGFORD,-33.7800229,151.0553219,POINT (-33.7800229 151.0553219)
118,NSW,Bennelong,Carlingford East,CARLINGFORD,-33.7654,151.053,POINT (-33.7654 151.053)
119,NSW,Bennelong,Central Sydney BENNELONG PPVC,HAYMARKET,-33.8824351,151.2063239,POINT (-33.8824351 151.2063239)
120,NSW,Bennelong,Chatswood BENNELONG PPVC,CHATSWOOD,-33.7981824,151.1818539,POINT (-33.7981824 151.1818539)
121,NSW,Bennelong,Denistone,EASTWOOD,-33.79244,151.08353,POINT (-33.79244 151.08353)
122,NSW,Bennelong,Denistone East,DENISTONE EAST,-33.7935,151.097,POINT (-33.7935 151.097)
123,NSW,Calare,Orange North,ORANGE,-33.2798185,149.0946465,POINT (-33.2798185 149.0946465)
124,NSW,Bennelong,Denistone South,WEST RYDE,-33.8056266,151.08318,POINT (-33.8056266 151.08318)
125,NSW,Bennelong,Denistone West,WEST RYDE,-33.8036,151.07,POINT (-33.8036 151.07)
126,NSW,Bennelong,Divisional Office (PREPOLL),CHATSWOOD,-33.7982897,151.1819191,POINT (-33.7982897 151.1819191)
127,NSW,Bennelong,East Ryde,NORTH RYDE,-33.8063669,151.1268905,POINT (-33.8063669 151.1268905)
128,NSW,Bennelong,East Ryde Central,RYDE,-33.8133913,151.1200494,POINT (-33.8133913 151.1200494)
129,NSW,Bennelong,East Ryde Heights,RYDE,-33.8086005,151.126175,POINT (-33.8086005 151.126175)
130,NSW,Bennelong,Eastwood,EASTWOOD,-33.7928,151.078,POINT (-33.7928 151.078)
131,NSW,Bennelong,Eastwood Heights,EASTWOOD,-33.7817,151.096,POINT (-33.7817 151.096)
132,NSW,Bennelong,Eastwood PPVC,EASTWOOD,-33.792735,151.0795811,POINT (-33.792735 151.0795811)
133,NSW,Bennelong,Eastwood West,EASTWOOD,-33.7906,151.067,POINT (-33.7906 151.067)
134,NSW,Bennelong,Epping,EPPING,-33.7745,151.079,POINT (-33.7745 151.079)
135,NSW,Bennelong,Epping East,EPPING,-33.768408,151.0871472,POINT (-33.768408 151.0871472)
136,NSW,Bennelong,Epping Heights,EPPING,-33.76284,151.07377,POINT (-33.76284 151.07377)
137,NSW,Bennelong,Epping North,NORTH EPPING,-33.7576,151.096,POINT (-33.7576 151.096)
138,NSW,Bennelong,Epping PPVC,EPPING,-33.7746,151.0788,POINT (-33.7746 151.0788)
139,NSW,Bennelong,Epping West,EPPING,-33.7728471,151.0684506,POINT (-33.7728471 151.0684506)
140,NSW,Bennelong,Ermington Central,ERMINGTON,-33.816527,151.0572843,POINT (-33.816527 151.0572843)
141,NSW,Bennelong,Ermington West (Bennelong),ERMINGTON,-33.8061,151.058,POINT (-33.8061 151.058)
142,NSW,Bennelong,Gladesville (Bennelong),GLADESVILLE,-33.8323301,151.1259218,POINT (-33.8323301 151.1259218)
143,NSW,Bennelong,Gladesville North,GLADESVILLE,-33.82318,151.129927,POINT (-33.82318 151.129927)
144,NSW,Bennelong,Hunters Hill North (Bennelong),HUNTERS HILL,-33.8211705,151.1355456,POINT (-33.8211705 151.1355456)
145,NSW,Bennelong,Macquarie Park,MACQUARIE PARK,-33.7797606,151.1149218,POINT (-33.7797606 151.1149218)
146,NSW,Bennelong,Macquarie Park South,MARSFIELD,-33.7864,151.109,POINT (-33.7864 151.109)
147,NSW,Bennelong,Marsfield,EASTWOOD,-33.782004,151.098358,POINT (-33.782004 151.098358)
148,NSW,Bennelong,Marsfield North,MARSFIELD,-33.7703911,151.0996223,POINT (-33.7703911 151.0996223)
149,NSW,Bennelong,Meadowbank,MEADOWBANK,-33.8148423,151.0924377,POINT (-33.8148423 151.0924377)
150,NSW,Bennelong,Melrose Park,MELROSE PARK,-33.8151,151.073,POINT (-33.8151 151.073)
151,NSW,Bennelong,North Ryde,NORTH RYDE,-33.7947,151.13,POINT (-33.7947 151.13)
152,NSW,Bennelong,North Ryde Central,NORTH RYDE,-33.7939,151.12,POINT (-33.7939 151.12)
153,NSW,Bennelong,North Ryde Heights,NORTH RYDE,-33.8005415,151.1309669,POINT (-33.8005415 151.1309669)
154,NSW,Bennelong,Putney,PUTNEY,-33.8249,151.111,POINT (-33.8249 151.111)
155,NSW,Bennelong,Putney West,GLADESVILLE,-33.8277117,151.1201395,POINT (-33.8277117 151.1201395)
156,NSW,Bennelong,Ryde,RYDE,-33.7943477,151.109308,POINT (-33.7943477 151.109308)
157,NSW,Bennelong,Ryde Central,RYDE,-33.815245,151.104829,POINT (-33.815245 151.104829)
158,NSW,Bennelong,Ryde Heights,RYDE,-33.8178,151.098,POINT (-33.8178 151.098)
159,NSW,Bennelong,Ryde South,RYDE,-33.8217896,151.1080114,POINT (-33.8217896 151.1080114)
161,NSW,Bennelong,Sydney (Bennelong),SYDNEY,-33.8730501,151.2064528,POINT (-33.8730501 151.2064528)
162,NSW,Bennelong,Sydney BENNELONG PPVC,SYDNEY,-33.8638565,151.2092587,POINT (-33.8638565 151.2092587)
163,NSW,Bennelong,Top Ryde,RYDE,-33.8118,151.108,POINT (-33.8118 151.108)
164,NSW,Bennelong,West Ryde,WEST RYDE,-33.8087,151.085,POINT (-33.8087 151.085)
165,NSW,Bennelong,West Ryde BENNELONG PPVC,RYDE,-33.8152096,151.1048685,POINT (-33.8152096 151.1048685)
166,NSW,Bennelong,West Ryde Central,RYDE,-33.8085,151.1,POINT (-33.8085 151.1)
167,NSW,Berowra,Annangrove,ANNANGROVE,-33.6687322,150.9522275,POINT (-33.6687322 150.9522275)
168,NSW,Berowra,Arcadia,ARCADIA,-33.6231223,151.0520461,POINT (-33.6231223 151.0520461)
169,NSW,Berowra,Asquith (Berowra),ASQUITH,-33.6855,151.112,POINT (-33.6855 151.112)
170,NSW,Berowra,Baulkham Hills BEROWRA PPVC,BAULKHAM HILLS,-33.7606491,150.992675,POINT (-33.7606491 150.992675)
171,NSW,Berowra,Beecroft,BEECROFT,-33.7523233,151.0651663,POINT (-33.7523233 151.0651663)
172,NSW,Berowra,Beecroft North,BEECROFT,-33.7513896,151.065481,POINT (-33.7513896 151.065481)
173,NSW,Berowra,Berowra,BEROWRA,-33.6181,151.147,POINT (-33.6181 151.147)
174,NSW,Berowra,Berowra Heights,BEROWRA HEIGHTS,-33.6094008,151.1427318,POINT (-33.6094008 151.1427318)
175,NSW,Berowra,Berowra PPVC,COWAN,-33.5859736,151.1688727,POINT (-33.5859736 151.1688727)
176,NSW,Berowra,BLV Berowra PPVC,CHATSWOOD,-33.7981824,151.1818539,POINT (-33.7981824 151.1818539)
177,NSW,Berowra,Brooklyn,BROOKLYN,-33.54813,151.21538,POINT (-33.54813 151.21538)
178,NSW,Berowra,Carlingford Heights,CARLINGFORD,-33.7658,151.039,POINT (-33.7658 151.039)
179,NSW,Berowra,Castle Hill North (Berowra),CASTLE HILL,-33.7142,150.993,POINT (-33.7142 150.993)
180,NSW,Berowra,Cheltenham,CHELTENHAM,-33.7578,151.074,POINT (-33.7578 151.074)
181,NSW,Berowra,Cherrybrook,CHERRYBROOK,-33.7314,151.042,POINT (-33.7314 151.042)
182,NSW,Berowra,Cherrybrook Central,CHERRYBROOK,-33.7205638,151.0459716,POINT (-33.7205638 151.0459716)
183,NSW,Berowra,Cherrybrook North,CHERRYBROOK,-33.7189973,151.0397793,POINT (-33.7189973 151.0397793)
184,NSW,Berowra,Cherrybrook PPVC,CHERRYBROOK,-33.7138778,151.0511344,POINT (-33.7138778 151.0511344)
185,NSW,Berowra,Cherrybrook South,WEST PENNANT HILLS,-33.7382005,151.0503745,POINT (-33.7382005 151.0503745)
186,NSW,Berowra,Cowan,COWAN,-33.5885,151.169,POINT (-33.5885 151.169)
187,NSW,Berowra,Divisional Office (PREPOLL),CHATSWOOD,-33.7982897,151.1819191,POINT (-33.7982897 151.1819191)
188,NSW,Berowra,Dural,DURAL,-33.6857,151.026,POINT (-33.6857 151.026)
189,NSW,Berowra,Galston,GALSTON,-33.648,151.045,POINT (-33.648 151.045)
190,NSW,Berowra,Glenhaven,GLENHAVEN,-33.701,151.004,POINT (-33.701 151.004)
191,NSW,Berowra,Glenorie,GLENORIE,-33.5987,151.008,POINT (-33.5987 151.008)
192,NSW,Berowra,Glenorie West,GLENORIE,-33.6054902,150.9788283,POINT (-33.6054902 150.9788283)
193,NSW,Berowra,Hornsby (Berowra),HORNSBY,-33.7,151.097,POINT (-33.7 151.097)
194,NSW,Berowra,Hornsby BEROWRA PPVC,HORNSBY,-33.702591,151.097463,POINT (-33.702591 151.097463)
195,NSW,Berowra,Hornsby Central (Berowra),HORNSBY,-33.7064,151.102,POINT (-33.7064 151.102)
196,NSW,Berowra,Hornsby Heights,HORNSBY HEIGHTS,-33.670187,151.0966482,POINT (-33.670187 151.0966482)
197,NSW,Berowra,Hornsby North,HORNSBY,-33.6833,151.098,POINT (-33.6833 151.098)
198,NSW,Berowra,Hornsby South,HORNSBY,-33.7127637,151.0955118,POINT (-33.7127637 151.0955118)
199,NSW,Berowra,Hornsby West (Berowra),HORNSBY,-33.70446,151.097122,POINT (-33.70446 151.097122)
200,NSW,Berowra,Kenthurst,KENTHURST,-33.6654,151.004,POINT (-33.6654 151.004)
201,NSW,Berowra,Maroota,MAROOTA,-33.45935,150.99446,POINT (-33.45935 150.99446)
202,NSW,Berowra,Maroota South,SOUTH MAROOTA,-33.5234,150.944,POINT (-33.5234 150.944)
203,NSW,Berowra,Middle Dural,MIDDLE DURAL,-33.6444,151.023,POINT (-33.6444 151.023)
204,NSW,Berowra,Mount Colah,MOUNT COLAH,-33.6726,151.117,POINT (-33.6726 151.117)
205,NSW,Berowra,Mount Kuring-Gai,MOUNT KURING-GAI,-33.6575,151.136,POINT (-33.6575 151.136)
206,NSW,Berowra,Normanhurst (Berowra),NORMANHURST,-33.7237,151.098,POINT (-33.7237 151.098)
207,NSW,Berowra,Normanhurst West,THORNLEIGH,-33.72177,151.08808,POINT (-33.72177 151.08808)
208,NSW,Berowra,Pennant Hills,PENNANT HILLS,-33.7328992,151.0614421,POINT (-33.7328992 151.0614421)
209,NSW,Berowra,Pennant Hills BEROWRA PPVC,THORNLEIGH,-33.7299801,151.0807536,POINT (-33.7299801 151.0807536)
210,NSW,Berowra,Rogans Hill,CASTLE HILL,-33.7271,151.024,POINT (-33.7271 151.024)
212,NSW,Berowra,Rogans Hill North,CASTLE HILL,-33.721514,151.0232634,POINT (-33.721514 151.0232634)
213,NSW,Berowra,Rogans Hill South,CASTLE HILL,-33.7285,151.025,POINT (-33.7285 151.025)
215,NSW,Berowra,Sydney (Berowra),SYDNEY,-33.8730501,151.2064528,POINT (-33.8730501 151.2064528)
216,NSW,Berowra,Sydney BEROWRA PPVC,SYDNEY,-33.8638565,151.2092587,POINT (-33.8638565 151.2092587)
217,NSW,Berowra,Thornleigh,THORNLEIGH,-33.7282,151.085,POINT (-33.7282 151.085)
218,NSW,Berowra,Westleigh,THORNLEIGH,-33.7242,151.072,POINT (-33.7242 151.072)
219,NSW,Berowra,West Pennant Hills,WEST PENNANT HILLS,-33.756832,151.042589,POINT (-33.756832 151.042589)
220,NSW,Berowra,West Pennant Hills Central,WEST PENNANT HILLS,-33.7459033,151.0501363,POINT (-33.7459033 151.0501363)
221,NSW,Berowra,West Pennant Hills North (Berowra),WEST PENNANT HILLS,-33.7447,151.03,POINT (-33.7447 151.03)
222,NSW,Berowra,West Ryde BEROWRA PPVC,RYDE,-33.8152096,151.1048685,POINT (-33.8152096 151.1048685)
223,NSW,Berowra,Wisemans Ferry,WISEMANS FERRY,-33.3954535,150.9849427,POINT (-33.3954535 150.9849427)
224,NSW,Blaxland,Auburn,AUBURN,-33.8538,151.032,POINT (-33.8538 151.032)
225,NSW,Blaxland,Auburn BLAXLAND PPVC,AUBURN,-33.8757363,151.0218471,POINT (-33.8757363 151.0218471)
226,NSW,Blaxland,Auburn Central,AUBURN,-33.856,151.028152,POINT (-33.856 151.028152)
227,NSW,Blaxland,Auburn East,AUBURN,-33.8652,151.025,POINT (-33.8652 151.025)
228,NSW,Blaxland,Auburn North,AUBURN,-33.8433,151.034,POINT (-33.8433 151.034)
229,NSW,Blaxland,Auburn West,AUBURN,-33.8603,151.02,POINT (-33.8603 151.02)
230,NSW,Blaxland,Bankstown (Blaxland),BANKSTOWN,-33.9209,151.034,POINT (-33.9209 151.034)
231,NSW,Blaxland,Bankstown BLAXLAND PPVC,BANKSTOWN,-33.919083,151.036563,POINT (-33.919083 151.036563)
232,NSW,Blaxland,Bankstown Central,BANKSTOWN,-33.91927,151.03662,POINT (-33.91927 151.03662)
233,NSW,Blaxland,Bankstown East,BANKSTOWN,-33.9133,151.035,POINT (-33.9133 151.035)
234,NSW,Blaxland,Bankstown North,BANKSTOWN,-33.9054791,151.0386724,POINT (-33.9054791 151.0386724)
235,NSW,Blaxland,Bankstown West,BANKSTOWN,-33.9164,151.02,POINT (-33.9164 151.02)
236,NSW,Blaxland,Bass Hill,BASS HILL,-33.9047,151.006,POINT (-33.9047 151.006)
237,NSW,Blaxland,Bass Hill Central,BASS HILL,-33.8975854,150.9884691,POINT (-33.8975854 150.9884691)
238,NSW,Blaxland,Bass Hill West,BASS HILL,-33.8996,150.99,POINT (-33.8996 150.99)
239,NSW,Blaxland,Berala,BERALA,-33.8705,151.028,POINT (-33.8705 151.028)
240,NSW,Blaxland,Berala South,BERALA,-33.8783,151.029,POINT (-33.8783 151.029)
241,NSW,Blaxland,Birrong,BIRRONG,-33.8958,151.02,POINT (-33.8958 151.02)
242,NSW,Blaxland,BLV Blaxland PPVC,PARRAMATTA,-33.8149642,151.0063857,POINT (-33.8149642 151.0063857)
243,NSW,Blaxland,Chester Hill,CHESTER HILL,-33.8847939,151.0008561,POINT (-33.8847939 151.0008561)
244,NSW,Blaxland,Chester Hill Central,CHESTER HILL,-33.8873,151.001,POINT (-33.8873 151.001)
245,NSW,Blaxland,Chester Hill North,CHESTER HILL,-33.8737,150.996,POINT (-33.8737 150.996)
246,NSW,Gilmore,Moruya,MORUYA,-35.9127,150.076,POINT (-35.9127 150.076)
247,NSW,Blaxland,Condell Park,CONDELL PARK,-33.9255,151.013,POINT (-33.9255 151.013)
248,NSW,Blaxland,Condell Park North,CONDELL PARK,-33.9228609,151.0129563,POINT (-33.9228609 151.0129563)
249,NSW,Blaxland,Condell Park South,BANKSTOWN,-33.931105,151.0216557,POINT (-33.931105 151.0216557)
250,NSW,Blaxland,Condell Park West,CONDELL PARK,-33.923606,151.002972,POINT (-33.923606 151.002972)
251,NSW,Blaxland,Divisional Office (PREPOLL),PARRAMATTA,-33.8149755,151.0063881,POINT (-33.8149755 151.0063881)
252,NSW,Blaxland,Fairfield BLAXLAND PPVC,FAIRFIELD,-33.8707654,150.9543674,POINT (-33.8707654 150.9543674)
253,NSW,Blaxland,Georges Hall,GEORGES HALL,-33.9120805,150.9925655,POINT (-33.9120805 150.9925655)
254,NSW,Blaxland,Granville East (Blaxland),SOUTH GRANVILLE,-33.8481385,151.0106418,POINT (-33.8481385 151.0106418)
255,NSW,Blaxland,Granville South (Blaxland),SOUTH GRANVILLE,-33.8579,151.007,POINT (-33.8579 151.007)
256,NSW,Blaxland,Guildford North (Blaxland),GUILDFORD,-33.8488183,150.9961068,POINT (-33.8488183 150.9961068)
257,NSW,Blaxland,Guildford South,GUILDFORD,-33.8608949,150.9962856,POINT (-33.8608949 150.9962856)
258,NSW,Blaxland,Lidcombe (Blaxland),LIDCOMBE,-33.860616,151.0472488,POINT (-33.860616 151.0472488)
259,NSW,Blaxland,Lidcombe South (Blaxland),LIDCOMBE,-33.8654,151.045,POINT (-33.8654 151.045)
260,NSW,Blaxland,Milperra,MILPERRA,-33.9418,150.98,POINT (-33.9418 150.98)
261,NSW,Blaxland,Parramatta BLAXLAND PPVC,PARRAMATTA,-33.8140622,151.0026311,POINT (-33.8140622 151.0026311)
262,NSW,Blaxland,Regents Park,REGENTS PARK,-33.885711,151.023368,POINT (-33.885711 151.023368)
263,NSW,Blaxland,Revesby North (Blaxland),REVESBY,-33.9447,151.017,POINT (-33.9447 151.017)
264,NSW,Blaxland,Sefton,SEFTON,-33.8872,151.009,POINT (-33.8872 151.009)
265,NSW,Blaxland,Silverwater (Blaxland),AUBURN,-33.841564,151.038377,POINT (-33.841564 151.038377)
267,NSW,Blaxland,Sydney (Blaxland),SYDNEY,-33.8730501,151.2064528,POINT (-33.8730501 151.2064528)
268,NSW,Blaxland,Sydney BLAXLAND PPVC,SYDNEY,-33.8638565,151.2092587,POINT (-33.8638565 151.2092587)
269,NSW,Blaxland,Villawood East,VILLAWOOD,-33.8895,150.986,POINT (-33.8895 150.986)
270,NSW,Blaxland,Yagoona,YAGOONA,-33.9056,151.025,POINT (-33.9056 151.025)
271,NSW,Blaxland,Yagoona West,YAGOONA,-33.9064,151.021,POINT (-33.9064 151.021)
272,NSW,Bradfield,Asquith (Bradfield),ASQUITH,-33.6855,151.112,POINT (-33.6855 151.112)
273,NSW,Bradfield,BLV Bradfield PPVC,CHATSWOOD,-33.7981824,151.1818539,POINT (-33.7981824 151.1818539)
274,NSW,Bradfield,Castle Cove,CASTLE COVE,-33.7831013,151.2024443,POINT (-33.7831013 151.2024443)
275,NSW,Bradfield,Central Sydney BRADFIELD PPVC,HAYMARKET,-33.8824351,151.2063239,POINT (-33.8824351 151.2063239)
276,NSW,Bradfield,Chatswood (Bradfield),CHATSWOOD,-33.7991792,151.1830173,POINT (-33.7991792 151.1830173)
277,NSW,Bradfield,Chatswood BRADFIELD PPVC,CHATSWOOD,-33.7975386,151.1817732,POINT (-33.7975386 151.1817732)
278,NSW,Bradfield,Chatswood West (Bradfield),CHATSWOOD,-33.7999459,151.1753141,POINT (-33.7999459 151.1753141)
279,NSW,Bradfield,Divisional Office (PREPOLL),CHATSWOOD,-33.7982897,151.1819191,POINT (-33.7982897 151.1819191)
280,NSW,Bradfield,Gordon,GORDON,-33.75679,151.15251,POINT (-33.75679 151.15251)
281,NSW,Bradfield,Gordon East,GORDON,-33.7459209,151.1574345,POINT (-33.7459209 151.1574345)
282,NSW,Bradfield,Gordon PPVC,ROSEVILLE,-33.784254,151.1832633,POINT (-33.784254 151.1832633)
283,NSW,Bradfield,Gordon West,WEST PYMBLE,-33.7601,151.139,POINT (-33.7601 151.139)
284,NSW,Bradfield,Hornsby (Bradfield),HORNSBY,-33.7,151.097,POINT (-33.7 151.097)
285,NSW,Bradfield,Hornsby BRADFIELD PPVC,HORNSBY,-33.702591,151.097463,POINT (-33.702591 151.097463)
286,NSW,Bradfield,Hornsby Central (Bradfield),HORNSBY,-33.7064,151.102,POINT (-33.7064 151.102)
287,NSW,Bradfield,Hornsby East,HORNSBY,-33.70282,151.105087,POINT (-33.70282 151.105087)
288,NSW,Bradfield,Hornsby West (Bradfield),HORNSBY,-33.70446,151.097122,POINT (-33.70446 151.097122)
289,NSW,Bradfield,Killara,LINDFIELD,-33.7757354,151.1700368,POINT (-33.7757354 151.1700368)
290,NSW,Bradfield,Killara East,KILLARA,-33.7560824,151.1740076,POINT (-33.7560824 151.1740076)
291,NSW,Bradfield,Lindfield Central,LINDFIELD WEST,-33.7777892,151.1483567,POINT (-33.7777892 151.1483567)
292,NSW,Bradfield,Lindfield East,LINDFIELD,-33.7681,151.184,POINT (-33.7681 151.184)
293,NSW,Bradfield,Lindfield North,LINDFIELD,-33.78106,151.16972,POINT (-33.78106 151.16972)
294,NSW,Bradfield,Lindfield West,KILLARA,-33.77468,151.14553,POINT (-33.77468 151.14553)
295,NSW,Bradfield,Normanhurst (Bradfield),NORMANHURST,-33.7237,151.098,POINT (-33.7237 151.098)
296,NSW,Bradfield,North Wahroonga,WAHROONGA,-33.7049082,151.1306416,POINT (-33.7049082 151.1306416)
297,NSW,Bradfield,Pennant Hills BRADFIELD PPVC,THORNLEIGH,-33.7299801,151.0807536,POINT (-33.7299801 151.0807536)
298,NSW,Bradfield,Pymble,PYMBLE,-33.7395,151.137,POINT (-33.7395 151.137)
299,NSW,Bradfield,Pymble North,PYMBLE,-33.731839,151.1411654,POINT (-33.731839 151.1411654)
300,NSW,Bradfield,Pymble West,WEST PYMBLE,-33.76394,151.12354,POINT (-33.76394 151.12354)
301,NSW,Bradfield,Roseville,ROSEVILLE,-33.7842,151.179311,POINT (-33.7842 151.179311)
302,NSW,Bradfield,Roseville East,ROSEVILLE,-33.782,151.188,POINT (-33.782 151.188)
303,NSW,Bradfield,Roseville South,ROSEVILLE,-33.786608,151.1895499,POINT (-33.786608 151.1895499)
304,NSW,Bradfield,St Ives,ST IVES,-33.7291,151.1604,POINT (-33.7291 151.1604)
305,NSW,Bradfield,St Ives Chase,ST IVES CHASE,-33.7084749,151.1632003,POINT (-33.7084749 151.1632003)
306,NSW,Bradfield,St Ives East,ST IVES,-33.72443,151.17794,POINT (-33.72443 151.17794)
307,NSW,Bradfield,St Ives North,ST IVES,-33.7187,151.164,POINT (-33.7187 151.164)
308,NSW,Bradfield,St Ives PPVC,ST IVES,-33.730721,151.1610768,POINT (-33.730721 151.1610768)
309,NSW,Bradfield,St Ives South,ST IVES,-33.7403,151.167,POINT (-33.7403 151.167)
310,NSW,Bradfield,South Turramurra,SOUTH TURRAMURRA,-33.7565262,151.1131977,POINT (-33.7565262 151.1131977)
311,NSW,Bradfield,South Turramurra Heights,TURRAMURRA,-33.7446,151.113,POINT (-33.7446 151.113)
315,NSW,Bradfield,Sydney (Bradfield),SYDNEY,-33.8730501,151.2064528,POINT (-33.8730501 151.2064528)
316,NSW,Bradfield,Sydney BRADFIELD PPVC,SYDNEY,-33.8638565,151.2092587,POINT (-33.8638565 151.2092587)
317,NSW,Bradfield,Turramurra Central,PYMBLE,-33.7347001,151.1370193,POINT (-33.7347001 151.1370193)
318,NSW,Bradfield,Turramurra North,NORTH TURRAMURRA,-33.7147,151.147,POINT (-33.7147 151.147)
319,NSW,Bradfield,Turramurra Valley,NORTH TURRAMURRA,-33.6909916,151.1537943,POINT (-33.6909916 151.1537943)
320,NSW,Bradfield,Wahroonga,WAHROONGA,-33.716189,151.1182789,POINT (-33.716189 151.1182789)
321,NSW,Bradfield,Wahroonga East,WAHROONGA,-33.7155,151.128,POINT (-33.7155 151.128)
322,NSW,Bradfield,Wahroonga South,WAHROONGA,-33.7168372,151.1205225,POINT (-33.7168372 151.1205225)
323,NSW,Bradfield,Waitara,WAITARA,-33.7133693,151.1034831,POINT (-33.7133693 151.1034831)
324,NSW,Bradfield,Waitara North,WAITARA,-33.7091354,151.1062678,POINT (-33.7091354 151.1062678)
325,NSW,Bradfield,Warrawee,TURRAMURRA,-33.73,151.123,POINT (-33.73 151.123)
326,NSW,Calare,Barry,BARRY,-33.6464839,149.2717135,POINT (-33.6464839 149.2717135)
327,NSW,Calare,Bathurst,BATHURST,-33.4217,149.571,POINT (-33.4217 149.571)
328,NSW,Calare,Bathurst Central,BATHURST,-33.42,149.577,POINT (-33.42 149.577)
329,NSW,Calare,Bathurst City,BATHURST,-33.4163,149.58,POINT (-33.4163 149.58)
330,NSW,Calare,Bathurst North,BATHURST,-33.4129,149.569,POINT (-33.4129 149.569)
331,NSW,Calare,Bathurst PPVC,BATHURST,-33.4152062,149.5788909,POINT (-33.4152062 149.5788909)
332,NSW,Calare,Bathurst South,BATHURST,-33.4337,149.569,POINT (-33.4337 149.569)
333,NSW,Calare,Bathurst West,WEST BATHURST,-33.4118,149.559,POINT (-33.4118 149.559)
334,NSW,Calare,Black Springs,BLACK SPRINGS,-33.8463,149.742,POINT (-33.8463 149.742)
335,NSW,Calare,Blayney,BLAYNEY,-33.5300044,149.2549042,POINT (-33.5300044 149.2549042)
336,NSW,Calare,Bletchington,ORANGE,-33.2693,149.103,POINT (-33.2693 149.103)
337,NSW,Calare,Bloomfield,BLOOMFIELD,-33.3186807,149.0910603,POINT (-33.3186807 149.0910603)
338,NSW,Calare,BLV Calare PPVC,ORANGE,-33.2861219,149.1010431,POINT (-33.2861219 149.1010431)
339,NSW,Calare,Borenore,BORENORE,-33.251,148.984,POINT (-33.251 148.984)
340,NSW,Calare,Bowen,ORANGE,-33.2802,149.118,POINT (-33.2802 149.118)
341,NSW,Calare,Bowenfels South,SOUTH BOWENFELS,-33.5152,150.120477,POINT (-33.5152 150.120477)
342,NSW,Calare,Calare Central,ORANGE,-33.2872,149.08,POINT (-33.2872 149.08)
343,NSW,Calare,Canobolas,CANOBOLAS,-33.3062,149.047,POINT (-33.3062 149.047)
344,NSW,Calare,Canowindra,CANOWINDRA,-33.5577156,148.6706656,POINT (-33.5577156 148.6706656)
345,NSW,Calare,Capertee,CAPERTEE,-33.1465683,149.9867103,POINT (-33.1465683 149.9867103)
346,NSW,Calare,Carcoar,CARCOAR,-33.6118941,149.1420543,POINT (-33.6118941 149.1420543)
347,NSW,Calare,Cargo,CARGO,-33.4277553,148.8078627,POINT (-33.4277553 148.8078627)
348,NSW,Calare,Cooerwull,LITHGOW,-33.4839494,150.141751,POINT (-33.4839494 150.141751)
349,NSW,Calare,Cudal,CUDAL,-33.2873619,148.7403241,POINT (-33.2873619 148.7403241)
350,NSW,Calare,Cullen Bullen,CULLEN BULLEN,-33.2995,150.033,POINT (-33.2995 150.033)
351,NSW,Calare,Cumnock,CUMNOCK,-32.92905,148.748647,POINT (-32.92905 148.748647)
352,NSW,Calare,Divisional Office (PREPOLL),ORANGE,-33.2860684,149.1011184,POINT (-33.2860684 149.1011184)
353,NSW,Calare,Dubbo CALARE PPVC,DUBBO,-32.2315018,148.6329645,POINT (-32.2315018 148.6329645)
354,NSW,Calare,Eglinton,EGLINTON,-33.3778328,149.5401417,POINT (-33.3778328 149.5401417)
355,NSW,Calare,Eugowra,EUGOWRA,-33.4237,148.369,POINT (-33.4237 148.369)
356,NSW,Calare,Geurie,GEURIE,-32.3961,148.829,POINT (-32.3961 148.829)
357,NSW,Calare,Glen Alice,GLEN ALICE,-33.0426996,150.2143916,POINT (-33.0426996 150.2143916)
358,NSW,Calare,Glenroi,ORANGE,-33.2972043,149.1117993,POINT (-33.2972043 149.1117993)
359,NSW,Calare,Gulgong,GULGONG,-32.3616,149.534,POINT (-32.3616 149.534)
360,NSW,Calare,Hampton,HAMPTON,-33.6487525,150.0490689,POINT (-33.6487525 150.0490689)
361,NSW,Calare,Hargraves,HARGRAVES,-32.7854,149.462,POINT (-32.7854 149.462)
362,NSW,Calare,Hartley,HARTLEY,-33.551,150.188,POINT (-33.551 150.188)
363,NSW,Calare,Hermitage,LITHGOW,-33.4799,150.149,POINT (-33.4799 150.149)
364,NSW,Calare,Hill End,HILL END,-33.0349,149.416,POINT (-33.0349 149.416)
365,NSW,Calare,Ilford,ILFORD,-32.9668,149.856,POINT (-32.9668 149.856)
366,NSW,Calare,Kandos,KANDOS,-32.8590215,149.9749159,POINT (-32.8590215 149.9749159)
367,NSW,Calare,Kelso,KELSO,-33.4176,149.604,POINT (-33.4176 149.604)
368,NSW,Calare,Lithgow,LITHGOW,-33.4818,150.16,POINT (-33.4818 150.16)
369,NSW,Calare,Lithgow PPVC,LITHGOW,-33.4809335,150.1574085,POINT (-33.4809335 150.1574085)
370,NSW,Calare,Lucknow,LUCKNOW,-33.3445,149.161,POINT (-33.3445 149.161)
371,NSW,Calare,Lue,LUE,-32.6566633,149.8455213,POINT (-32.6566633 149.8455213)
372,NSW,Calare,Lyndhurst,LYNDHURST,-33.6738179,149.0445601,POINT (-33.6738179 149.0445601)
373,NSW,Calare,Mandurama,MANDURAMA,-33.6518,149.07,POINT (-33.6518 149.07)
374,NSW,Calare,Manildra,MANILDRA,-33.1858946,148.6928488,POINT (-33.1858946 148.6928488)
375,NSW,Calare,Meadow Flat,MEADOW FLAT,-33.4344484,149.9201679,POINT (-33.4344484 149.9201679)
376,NSW,Calare,Millthorpe,MILLTHORPE,-33.4454758,149.1857157,POINT (-33.4454758 149.1857157)
377,NSW,Calare,Molong,MOLONG,-33.0948742,148.865605,POINT (-33.0948742 148.865605)
378,NSW,Calare,Mudgee,MUDGEE,-32.5914,149.592,POINT (-32.5914 149.592)
379,NSW,Calare,Mudgee Central,MUDGEE,-32.5984,149.583,POINT (-32.5984 149.583)
380,NSW,Calare,Mudgee PPVC,MUDGEE,-32.5901568,149.5887382,POINT (-32.5901568 149.5887382)
382,NSW,Calare,Mudgee South,MUDGEE,-32.6066,149.584,POINT (-32.6066 149.584)
383,NSW,Calare,Mullion Creek,MULLION CREEK,-33.1391,149.121,POINT (-33.1391 149.121)
384,NSW,Calare,Mumbil,MUMBIL,-32.7219,149.051,POINT (-32.7219 149.051)
385,NSW,Calare,Nashdale,NASHDALE,-33.2940709,149.0123866,POINT (-33.2940709 149.0123866)
386,NSW,Calare,Neville,NEVILLE,-33.709,149.217,POINT (-33.709 149.217)
387,NSW,Calare,O'Connell,O'CONNELL,-33.5245,149.72,POINT (-33.5245 149.72)
388,NSW,Calare,Oakey Park,LITHGOW,-33.466,150.183,POINT (-33.466 150.183)
389,NSW,Calare,Oberon,OBERON,-33.7021,149.859,POINT (-33.7021 149.859)
390,NSW,Calare,Orange,ORANGE,-33.2854901,149.0968798,POINT (-33.2854901 149.0968798)
391,NSW,Calare,Orange East,ORANGE,-33.2848161,149.1078578,POINT (-33.2848161 149.1078578)
392,NSW,Calare,Orange North West,ORANGE,-33.2583532,149.0726671,POINT (-33.2583532 149.0726671)
393,NSW,Calare,Orange PPVC,ORANGE,-33.2879159,149.1018679,POINT (-33.2879159 149.1018679)
394,NSW,Calare,Orange South,ORANGE,-33.293091,149.0970536,POINT (-33.293091 149.0970536)
395,NSW,Calare,Orange West,ORANGE,-33.2809,149.086,POINT (-33.2809 149.086)
396,NSW,Calare,Peel,PEEL,-33.3094,149.635,POINT (-33.3094 149.635)
397,NSW,Calare,Perthville,PERTHVILLE,-33.4912774,149.5491994,POINT (-33.4912774 149.5491994)
398,NSW,Calare,Portland,PORTLAND,-33.3551735,149.9792727,POINT (-33.3551735 149.9792727)
399,NSW,Calare,Raglan,RAGLAN,-33.4283,149.648,POINT (-33.4283 149.648)
400,NSW,Calare,Rockley,ROCKLEY,-33.69226,149.56285,POINT (-33.69226 149.56285)
401,NSW,Calare,Rylstone,RYLSTONE,-32.795781,149.972821,POINT (-32.795781 149.972821)
406,NSW,Calare,Spring Hill,SPRING HILL,-33.3997,149.151,POINT (-33.3997 149.151)
407,NSW,Calare,Spring Terrace,SPRING TERRACE,-33.3940137,149.0967575,POINT (-33.3940137 149.0967575)
408,NSW,Calare,Stuart Town,STUART TOWN,-32.8023,149.069,POINT (-32.8023 149.069)
409,NSW,Calare,Sydney (Calare),SYDNEY,-33.8730501,151.2064528,POINT (-33.8730501 151.2064528)
410,NSW,Calare,Trunkey,TRUNKEY CREEK,-33.8222481,149.3288065,POINT (-33.8222481 149.3288065)
411,NSW,Calare,Tweed Mills,LITHGOW,-33.4848816,150.1348122,POINT (-33.4848816 150.1348122)
412,NSW,Calare,Ulan,ULAN,-32.2822,149.743,POINT (-32.2822 149.743)
413,NSW,Calare,Wallerawang,WALLERAWANG,-33.4196,150.071,POINT (-33.4196 150.071)
414,NSW,Calare,Waratah North Orange,ORANGE,-33.246382,149.1048036,POINT (-33.246382 149.1048036)
415,NSW,Calare,Wattle Flat,WATTLE FLAT,-33.1422,149.692,POINT (-33.1422 149.692)
416,NSW,Calare,Wellington,WELLINGTON,-32.5576237,148.9420174,POINT (-32.5576237 148.9420174)
417,NSW,Calare,Wellington East,WELLINGTON,-32.5551,148.952,POINT (-32.5551 148.952)
418,NSW,Calare,Windeyer,WINDEYER,-32.6610913,149.4866753,POINT (-32.6610913 149.4866753)
419,NSW,Calare,Yeoval,YEOVAL,-32.7549609,148.6500868,POINT (-32.7549609 148.6500868)
420,NSW,Calare,Yetholme,YETHOLME,-33.4478,149.817,POINT (-33.4478 149.817)
421,NSW,Chifley,Arndell Park North,BLACKTOWN,-33.78707,150.89061,POINT (-33.78707 150.89061)
422,NSW,Chifley,Bidwill,BIDWILL,-33.7339,150.826,POINT (-33.7339 150.826)
423,NSW,Chifley,Blackett,BLACKETT,-33.7395,150.816,POINT (-33.7395 150.816)
424,NSW,Chifley,Blacktown CHIFLEY PPVC,BLACKTOWN,-33.7691823,150.9075553,POINT (-33.7691823 150.9075553)
425,NSW,Chifley,Blacktown South (Chifley),BLACKTOWN,-33.78035,150.9058,POINT (-33.78035 150.9058)
426,NSW,Chifley,Blacktown West,BLACKTOWN,-33.7705,150.893,POINT (-33.7705 150.893)
427,NSW,Chifley,BLV Chifley PPVC,PENRITH,-33.752017,150.690599,POINT (-33.752017 150.690599)
428,NSW,Chifley,Dean Park,DEAN PARK,-33.7339,150.858,POINT (-33.7339 150.858)
429,NSW,Chifley,Divisional Office (PREPOLL),PENRITH,-33.752158,150.690381,POINT (-33.752158 150.690381)
430,NSW,Chifley,Doonside,DOONSIDE,-33.765,150.872,POINT (-33.765 150.872)
431,NSW,Chifley,Doonside Central,DOONSIDE,-33.7552034,150.8642732,POINT (-33.7552034 150.8642732)
432,NSW,Chifley,Doonside North,DOONSIDE,-33.7563,150.875,POINT (-33.7563 150.875)
433,NSW,Chifley,Doonside South,BLACKTOWN,-33.7831813,150.8855827,POINT (-33.7831813 150.8855827)
434,NSW,Chifley,Glendenning,GLENDENNING,-33.7425,150.852,POINT (-33.7425 150.852)
435,NSW,Chifley,Hassall Grove,HASSALL GROVE,-33.7361,150.84,POINT (-33.7361 150.84)
436,NSW,Chifley,Hebersham,HEBERSHAM,-33.7477,150.825,POINT (-33.7477 150.825)
437,NSW,Chifley,Lethbridge Park,LETHBRIDGE PARK,-33.7381603,150.8008757,POINT (-33.7381603 150.8008757)
438,NSW,Chifley,Marayong,BLACKTOWN,-33.7565,150.895,POINT (-33.7565 150.895)
439,NSW,Chifley,Marayong Heights,MARAYONG,-33.7429,150.896,POINT (-33.7429 150.896)
440,NSW,Chifley,Marayong South,BLACKTOWN,-33.7606,150.885,POINT (-33.7606 150.885)
441,NSW,Chifley,Marayong West,MARAYONG,-33.7476227,150.8914958,POINT (-33.7476227 150.8914958)
442,NSW,Chifley,Marsden Park,MARSDEN PARK,-33.696,150.834,POINT (-33.696 150.834)
443,NSW,Chifley,Minchinbury (Chifley),MINCHINBURY,-33.7875,150.831,POINT (-33.7875 150.831)
444,NSW,Chifley,Mount Druitt,MOUNT DRUITT,-33.7672611,150.825511,POINT (-33.7672611 150.825511)
445,NSW,Chifley,Mount Druitt CHIFLEY PPVC,ROOTY HILL,-33.7722375,150.8439001,POINT (-33.7722375 150.8439001)
446,NSW,Chifley,Mount Druitt North,MOUNT DRUITT,-33.7639,150.812,POINT (-33.7639 150.812)
447,NSW,Chifley,Mount Druitt South,MOUNT DRUITT,-33.7749,150.814,POINT (-33.7749 150.814)
448,NSW,Chifley,Plumpton,PLUMPTON,-33.7491,150.838,POINT (-33.7491 150.838)
449,NSW,Chifley,Plumpton Central,PLUMPTON,-33.7479386,150.8349137,POINT (-33.7479386 150.8349137)
450,NSW,Chifley,Quakers Hill,QUAKERS HILL,-33.7377,150.885,POINT (-33.7377 150.885)
451,NSW,Chifley,Quakers Hill East (Chifley),QUAKERS HILL,-33.7292,150.896,POINT (-33.7292 150.896)
452,NSW,Chifley,Rooty Hill North,ROOTY HILL,-33.769,150.841,POINT (-33.769 150.841)
453,NSW,Chifley,Rooty Hill South,ROOTY HILL,-33.7733925,150.8448782,POINT (-33.7733925 150.8448782)
454,NSW,Chifley,Rooty Hill West,ROOTY HILL,-33.7719179,150.8356366,POINT (-33.7719179 150.8356366)
455,NSW,Chifley,Ropes Crossing,ROPES CROSSING,-33.7331733,150.7826436,POINT (-33.7331733 150.7826436)
456,NSW,Chifley,Shalvey,SHALVEY,-33.7278,150.807,POINT (-33.7278 150.807)
458,NSW,Chifley,Sydney (Chifley),SYDNEY,-33.8730501,151.2064528,POINT (-33.8730501 151.2064528)
459,NSW,Chifley,Tregear,TREGEAR,-33.7453707,150.7948779,POINT (-33.7453707 150.7948779)
460,NSW,Chifley,Whalan,WHALAN,-33.7526,150.81,POINT (-33.7526 150.81)
461,NSW,Chifley,Willmot,WILLMOT,-33.7256,150.794,POINT (-33.7256 150.794)
462,NSW,Chifley,Woodcroft,WOODCROFT,-33.7496,150.882,POINT (-33.7496 150.882)
463,NSW,Cook,Blakehurst South,BLAKEHURST,-33.996455,151.1066889,POINT (-33.996455 151.1066889)
464,NSW,Cook,BLV Cook PPVC,MIRANDA,-34.03313,151.101818,POINT (-34.03313 151.101818)
465,NSW,Cook,Brighton-Le-Sands (Cook),BRIGHTON-LE-SANDS,-33.9627,151.148,POINT (-33.9627 151.148)
466,NSW,Cook,Burraneer,BURRANEER,-34.0542808,151.1351206,POINT (-34.0542808 151.1351206)
467,NSW,Cook,Burraneer Bay,BURRANEER,-34.0507,151.133,POINT (-34.0507 151.133)
468,NSW,Cook,Caringbah Central,CARINGBAH,-34.0462315,151.1230705,POINT (-34.0462315 151.1230705)
469,NSW,Cook,Caringbah North,CARINGBAH,-34.03343,151.121,POINT (-34.03343 151.121)
470,NSW,Cook,Caringbah South,CARINGBAH SOUTH,-34.0537,151.123,POINT (-34.0537 151.123)
471,NSW,Cook,Caringbah West,CARINGBAH SOUTH,-34.0459,151.113,POINT (-34.0459 151.113)
472,NSW,Cook,Carlton South (Cook),CARLTON,-33.9727,151.128,POINT (-33.9727 151.128)
473,NSW,Cook,Carss Park,CARSS PARK,-33.9834,151.116,POINT (-33.9834 151.116)
474,NSW,Cook,Central Sydney COOK PPVC,HAYMARKET,-33.8824351,151.2063239,POINT (-33.8824351 151.2063239)
475,NSW,Cook,Connells Point (Cook),CONNELLS POINT,-33.9855,151.1,POINT (-33.9855 151.1)
476,NSW,Cook,Cronulla,CRONULLA,-34.0538,151.148,POINT (-34.0538 151.148)
477,NSW,Cook,Cronulla Central,CRONULLA,-34.0573311,151.1530107,POINT (-34.0573311 151.1530107)
478,NSW,Cook,Cronulla South,CRONULLA,-34.0653,151.154,POINT (-34.0653 151.154)
479,NSW,Cook,Divisional Office (PREPOLL),MIRANDA,-34.0332079,151.1022234,POINT (-34.0332079 151.1022234)
480,NSW,Cook,Engadine COOK PPVC,ENGADINE,-34.0668419,151.0139349,POINT (-34.0668419 151.0139349)
481,NSW,Cook,Greenhills Beach,GREENHILLS BEACH,-34.0389,151.158,POINT (-34.0389 151.158)
482,NSW,Cook,Gymea,GYMEA,-34.0371,151.084,POINT (-34.0371 151.084)
483,NSW,Cook,Gymea Bay,GYMEA BAY,-34.0468,151.083,POINT (-34.0468 151.083)
484,NSW,Cook,Gymea Bay North,GYMEA BAY,-34.0425237,151.0841204,POINT (-34.0425237 151.0841204)
485,NSW,Cook,Gymea North,GYMEA,-34.0265,151.088,POINT (-34.0265 151.088)
486,NSW,Cook,Hurstville COOK PPVC,HURSTVILLE,-33.9663791,151.1068363,POINT (-33.9663791 151.1068363)
487,NSW,Cook,Kirrawee (Cook),KIRRAWEE,-34.0331,151.078,POINT (-34.0331 151.078)
488,NSW,Cook,Kogarah Bay,KOGARAH BAY,-33.9839,151.123,POINT (-33.9839 151.123)
489,NSW,Cook,Kogarah East,KOGARAH,-33.9687,151.137,POINT (-33.9687 151.137)
490,NSW,Cook,Kurnell,KURNELL,-34.0108,151.204,POINT (-34.0108 151.204)
491,NSW,Cook,Lilli Pilli,LILLI PILLI,-34.0636292,151.1189871,POINT (-34.0636292 151.1189871)
492,NSW,Cook,Miranda,MIRANDA,-34.0332,151.098,POINT (-34.0332 151.098)
493,NSW,Cook,Miranda Central,MIRANDA,-34.036371,151.1008735,POINT (-34.036371 151.1008735)
494,NSW,Cook,Miranda COOK PPVC,MIRANDA,-34.0332379,151.1022225,POINT (-34.0332379 151.1022225)
495,NSW,Cook,Miranda North,MIRANDA,-34.0314,151.113,POINT (-34.0314 151.113)
496,NSW,Cook,Miranda South,MIRANDA,-34.0343221,151.0968145,POINT (-34.0343221 151.0968145)
497,NSW,Cook,Ramsgate,RAMSGATE,-33.9847,151.138,POINT (-33.9847 151.138)
498,NSW,Cook,Ramsgate Beach,RAMSGATE,-33.982,151.144,POINT (-33.982 151.144)
499,NSW,Cook,Rockdale COOK PPVC,ROCKDALE,-33.95144,151.13895,POINT (-33.95144 151.13895)
500,NSW,Cook,Sandringham,SANDRINGHAM,-33.9991,151.139,POINT (-33.9991 151.139)
501,NSW,Cook,Sans Souci,SANS SOUCI,-33.9951,151.13,POINT (-33.9951 151.13)
504,NSW,Cook,Sydney (Cook),SYDNEY,-33.8730501,151.2064528,POINT (-33.8730501 151.2064528)
505,NSW,Cook,Sylvania,SYLVANIA,-34.0084,151.112,POINT (-34.0084 151.112)
506,NSW,Cook,Sylvania Heights,SYLVANIA,-34.0124,151.098,POINT (-34.0124 151.098)
507,NSW,Cook,Sylvania Heights South,SYLVANIA,-34.0142066,151.09556,POINT (-34.0142066 151.09556)
508,NSW,Cook,Sylvania South,SYLVANIA,-34.0196,151.105,POINT (-34.0196 151.105)
509,NSW,Cook,Taren Point,TAREN POINT,-34.0189,151.123,POINT (-34.0189 151.123)
510,NSW,Cook,Woolooware,WOOLOOWARE,-34.0456,151.146,POINT (-34.0456 151.146)
511,NSW,Cook,Woolooware North,WOOLOOWARE,-34.0396225,151.145603,POINT (-34.0396225 151.145603)
512,NSW,Cook,Yowie Bay,YOWIE BAY,-34.0479,151.103,POINT (-34.0479 151.103)
513,NSW,Cowper,Aldavilla,YARRAVEL,-31.0554733,152.786424,POINT (-31.0554733 152.786424)
514,NSW,Cowper,Bayldon,TOORMINA,-30.3637,153.08,POINT (-30.3637 153.08)
515,NSW,Cowper,Bellbrook,BELLBROOK,-30.8188,152.509,POINT (-30.8188 152.509)
516,NSW,Cowper,Bellingen,BELLINGEN,-30.4516,152.895,POINT (-30.4516 152.895)
517,NSW,Cowper,Bellingen North,BELLINGEN,-30.4490208,152.8988106,POINT (-30.4490208 152.8988106)
518,NSW,Cowper,BLV Cowper PPVC,WEST KEMPSEY,-31.0807034,152.828489,POINT (-31.0807034 152.828489)
519,NSW,Cowper,Boambee,BOAMBEE,-30.3346,153.077,POINT (-30.3346 153.077)
520,NSW,Cowper,Boambee East,TOORMINA,-30.3587339,153.0847669,POINT (-30.3587339 153.0847669)
521,NSW,Cowper,Bonville,BONVILLE,-30.3847392,153.0506212,POINT (-30.3847392 153.0506212)
522,NSW,Cowper,Bostobrick,BOSTOBRICK,-30.2747,152.629,POINT (-30.2747 152.629)
523,NSW,Cowper,Bowraville,BOWRAVILLE,-30.6436,152.854,POINT (-30.6436 152.854)
524,NSW,Cowper,Coffs Harbour,COFFS HARBOUR,-30.2970164,153.1158675,POINT (-30.2970164 153.1158675)
525,NSW,Cowper,Coffs Harbour Central,COFFS HARBOUR,-30.2987081,153.118226,POINT (-30.2987081 153.118226)
526,NSW,Cowper,Coffs Harbour COWPER PPVC,COFFS HARBOUR,-30.2970164,153.1158675,POINT (-30.2970164 153.1158675)
527,NSW,Cowper,Coffs Harbour Jetty,COFFS HARBOUR,-30.305341,153.1358181,POINT (-30.305341 153.1358181)
529,NSW,Cowper,Coffs Harbour North,COFFS HARBOUR,-30.2793174,153.1274649,POINT (-30.2793174 153.1274649)
530,NSW,Cowper,Coffs Harbour South,COFFS HARBOUR,-30.2926,153.104,POINT (-30.2926 153.104)
531,NSW,Cowper,Coffs Harbour West,COFFS HARBOUR,-30.2828,153.112,POINT (-30.2828 153.112)
532,NSW,Cowper,Crescent Head,CRESCENT HEAD,-31.1898,152.971,POINT (-31.1898 152.971)
533,NSW,Cowper,Divisional Office (PREPOLL),WEST KEMPSEY,-31.0810841,152.8285931,POINT (-31.0810841 152.8285931)
534,NSW,Cowper,Dorrigo,DORRIGO,-30.3393389,152.7117264,POINT (-30.3393389 152.7117264)
535,NSW,Cowper,Emerald Downs,PORT MACQUARIE,-31.4781,152.915,POINT (-31.4781 152.915)
536,NSW,Cowper,Eungai Creek,EUNGAI CREEK,-30.831,152.882,POINT (-30.831 152.882)
537,NSW,Cowper,Frederickton,FREDERICKTON,-31.0327,152.88,POINT (-31.0327 152.88)
538,NSW,Cowper,Gladstone,GLADSTONE,-31.0262943,152.9461395,POINT (-31.0262943 152.9461395)
539,NSW,Cowper,Gleniffer,GLENIFFER,-30.388274,152.8842079,POINT (-30.388274 152.8842079)
540,NSW,Cowper,Hat Head,HAT HEAD,-31.051426,153.044064,POINT (-31.051426 153.044064)
541,NSW,Cowper,Hibbard,PORT MACQUARIE,-31.429,152.883,POINT (-31.429 152.883)
542,NSW,Cowper,Innes Lake,PORT MACQUARIE,-31.4733188,152.8727434,POINT (-31.4733188 152.8727434)
543,NSW,Cowper,Innes Lake North,PORT MACQUARIE,-31.4578251,152.8764055,POINT (-31.4578251 152.8764055)
544,NSW,Cowper,Kempsey East,EAST KEMPSEY,-31.0833982,152.8467429,POINT (-31.0833982 152.8467429)
545,NSW,Cowper,Kempsey Heights,WEST KEMPSEY,-31.0692762,152.8261994,POINT (-31.0692762 152.8261994)
546,NSW,Cowper,Kempsey PPVC,KEMPSEY,-31.0772723,152.8421126,POINT (-31.0772723 152.8421126)
547,NSW,Cowper,Kempsey South,SOUTH KEMPSEY,-31.094928,152.829606,POINT (-31.094928 152.829606)
548,NSW,Cowper,Kempsey West,WEST KEMPSEY,-31.0777572,152.829924,POINT (-31.0777572 152.829924)
549,NSW,Cowper,Korora (Cowper),KORORA,-30.25398,153.13145,POINT (-30.25398 153.13145)
550,NSW,Cowper,Kundabung,KUNDABUNG,-31.2124,152.835,POINT (-31.2124 152.835)
551,NSW,Cowper,Macksville,MACKSVILLE,-30.7095,152.919,POINT (-30.7095 152.919)
552,NSW,Cowper,Missabotti,MISSABOTTI,-30.5670072,152.8104603,POINT (-30.5670072 152.8104603)
553,NSW,Cowper,Mylestom,MYLESTOM,-30.463838,153.043104,POINT (-30.463838 153.043104)
554,NSW,Cowper,Nambucca Heads,NAMBUCCA HEADS,-30.6420732,153.0054562,POINT (-30.6420732 153.0054562)
555,NSW,Cowper,Nambucca Heads PPVC,NAMBUCCA HEADS,-30.6424474,153.0031227,POINT (-30.6424474 153.0031227)
556,NSW,Cowper,Newville,NAMBUCCA HEADS,-30.6403,152.984,POINT (-30.6403 152.984)
557,NSW,Cowper,North Boambee Valley,COFFS HARBOUR,-30.30869,153.0861913,POINT (-30.30869 153.0861913)
558,NSW,Cowper,Port Macquarie COWPER PPVC,PORT MACQUARIE,-31.4301441,152.9079506,POINT (-31.4301441 152.9079506)
559,NSW,Cowper,Port Macquarie East,PORT MACQUARIE,-31.4341,152.921,POINT (-31.4341 152.921)
560,NSW,Cowper,Port Macquarie Greenmeadows,PORT MACQUARIE,-31.4565091,152.8998811,POINT (-31.4565091 152.8998811)
561,NSW,Cowper,Port Macquarie North Shore,NORTH SHORE,-31.4047,152.874,POINT (-31.4047 152.874)
562,NSW,Hume,Goulburn,GOULBURN,-34.7501,149.72,POINT (-34.7501 149.72)
563,NSW,Cowper,Port Macquarie South,PORT MACQUARIE,-31.4534546,152.9185203,POINT (-31.4534546 152.9185203)
564,NSW,Cowper,Port Macquarie Town Beach,PORT MACQUARIE,-31.4293,152.914,POINT (-31.4293 152.914)
565,NSW,Cowper,Port Macquarie West,PORT MACQUARIE,-31.4355,152.896,POINT (-31.4355 152.896)
566,NSW,Cowper,Raleigh,RALEIGH,-30.4497149,153.0126023,POINT (-30.4497149 153.0126023)
567,NSW,Cowper,Repton,REPTON,-30.4461,153.029,POINT (-30.4461 153.029)
568,NSW,Cowper,Sawtell,SAWTELL,-30.3628682,153.0979486,POINT (-30.3628682 153.0979486)
569,NSW,Cowper,Scotts Head,SCOTTS HEAD,-30.74939,152.9955033,POINT (-30.74939 152.9955033)
570,NSW,Cowper,Settlement Shores,PORT MACQUARIE,-31.4304075,152.903282,POINT (-31.4304075 152.903282)
571,NSW,Cowper,South West Rocks,SOUTH WEST ROCKS,-30.8911488,153.0391993,POINT (-30.8911488 153.0391993)
572,NSW,Cowper,South West Rocks South,SOUTH WEST ROCKS,-30.8880205,153.0404882,POINT (-30.8880205 153.0404882)
574,NSW,Cowper,Stuarts Point,STUARTS POINT,-30.8206975,152.9944399,POINT (-30.8206975 152.9944399)
575,NSW,Cowper,Sydney (Cowper),SYDNEY,-33.8730501,151.2064528,POINT (-33.8730501 151.2064528)
576,NSW,Cowper,Tacking Point,PORT MACQUARIE,-31.4726,152.922,POINT (-31.4726 152.922)
577,NSW,Cowper,Taylors Arm,TAYLORS ARM,-30.7649994,152.7194329,POINT (-30.7649994 152.7194329)
578,NSW,Cowper,Telegraph Point,TELEGRAPH POINT,-31.3338,152.794,POINT (-31.3338 152.794)
579,NSW,Cowper,Thora,THORA,-30.4294142,152.7528051,POINT (-30.4294142 152.7528051)
580,NSW,Cowper,Thrumster,PORT MACQUARIE,-31.454806,152.8312471,POINT (-31.454806 152.8312471)
581,NSW,Cowper,Toormina,TOORMINA,-30.3512,153.085,POINT (-30.3512 153.085)
582,NSW,Cowper,Upper Orara,UPPER ORARA,-30.288844,153.0134512,POINT (-30.288844 153.0134512)
583,NSW,Cowper,Urunga,URUNGA,-30.4950764,153.0208529,POINT (-30.4950764 153.0208529)
584,NSW,Cowper,Utungun,UTUNGUN,-30.739,152.829,POINT (-30.739 152.829)
585,NSW,Cowper,Valla Beach,VALLA BEACH,-30.5916721,153.0024636,POINT (-30.5916721 153.0024636)
586,NSW,Cowper,Warrell Creek,WARRELL CREEK,-30.7564873,152.9053259,POINT (-30.7564873 152.9053259)
587,NSW,Cowper,Willawarrin,WILLAWARRIN,-30.9258568,152.6248927,POINT (-30.9258568 152.6248927)
588,NSW,Cunningham,Austinmer,AUSTINMER,-34.3069,150.931,POINT (-34.3069 150.931)
589,NSW,Cunningham,Balgownie,BALGOWNIE,-34.3877,150.872,POINT (-34.3877 150.872)
590,NSW,Cunningham,Balgownie Central,BALGOWNIE,-34.3889467,150.8795144,POINT (-34.3889467 150.8795144)
591,NSW,Cunningham,Bellambi,BELLAMBI,-34.3684988,150.9168797,POINT (-34.3684988 150.9168797)
592,NSW,Cunningham,BLV Cunningham PPVC,WOLLONGONG,-34.427135,150.898067,POINT (-34.427135 150.898067)
593,NSW,Cunningham,Bulli,BULLI,-34.32677,150.91214,POINT (-34.32677 150.91214)
594,NSW,Cunningham,Bulli Central,BULLI,-34.33465,150.9134,POINT (-34.33465 150.9134)
595,NSW,Cunningham,Central Sydney CUNNINGHAM PPVC,HAYMARKET,-33.8824351,151.2063239,POINT (-33.8824351 151.2063239)
596,NSW,Cunningham,Coledale,COLEDALE,-34.28947,150.94687,POINT (-34.28947 150.94687)
597,NSW,Cunningham,Coniston,CONISTON,-34.4386,150.887,POINT (-34.4386 150.887)
598,NSW,Cunningham,Cordeaux Heights,CORDEAUX HEIGHTS,-34.4454,150.835,POINT (-34.4454 150.835)
599,NSW,Cunningham,Corrimal,CORRIMAL,-34.37543,150.89813,POINT (-34.37543 150.89813)
600,NSW,Cunningham,Corrimal East,EAST CORRIMAL,-34.37532,150.91062,POINT (-34.37532 150.91062)
601,NSW,Cunningham,Corrimal PPVC,CORRIMAL,-34.375455,150.898103,POINT (-34.375455 150.898103)
602,NSW,Cunningham,Dapto CUNNINGHAM PPVC,DAPTO,-34.4975299,150.7958292,POINT (-34.4975299 150.7958292)
603,NSW,Cunningham,Divisional Office (PREPOLL),WOLLONGONG,-34.4270111,150.8981072,POINT (-34.4270111 150.8981072)
604,NSW,Cunningham,Fairy Meadow,FAIRY MEADOW,-34.3902,150.893,POINT (-34.3902 150.893)
605,NSW,Cunningham,Figtree,FIGTREE,-34.43887,150.8537,POINT (-34.43887 150.8537)
606,NSW,Cunningham,Figtree Heights,FIGTREE,-34.4316,150.856,POINT (-34.4316 150.856)
607,NSW,Cunningham,Gwynneville,GWYNNEVILLE,-34.4180794,150.879339,POINT (-34.4180794 150.879339)
608,NSW,Cunningham,Helensburgh,HELENSBURGH,-34.1924,150.98146,POINT (-34.1924 150.98146)
609,NSW,Cunningham,Helensburgh North,HELENSBURGH,-34.18395,150.98865,POINT (-34.18395 150.98865)
610,NSW,Cunningham,Keiraville,KEIRAVILLE,-34.4147,150.873,POINT (-34.4147 150.873)
611,NSW,Cunningham,Lake Heights (Cunningham),LAKE HEIGHTS,-34.4902,150.868,POINT (-34.4902 150.868)
612,NSW,Cunningham,Mangerton,MANGERTON,-34.4372815,150.8704656,POINT (-34.4372815 150.8704656)
613,NSW,Cunningham,Mount Keira,WEST WOLLONGONG,-34.4199799,150.8630174,POINT (-34.4199799 150.8630174)
614,NSW,Cunningham,Mount Kembla,MOUNT KEMBLA,-34.4326,150.818,POINT (-34.4326 150.818)
615,NSW,Cunningham,Mount Ousley,FAIRY MEADOW,-34.39908,150.88966,POINT (-34.39908 150.88966)
616,NSW,Cunningham,Port Kembla,PORT KEMBLA,-34.4875692,150.9144598,POINT (-34.4875692 150.9144598)
617,NSW,Cunningham,Port Kembla Central,PORT KEMBLA,-34.4816,150.901,POINT (-34.4816 150.901)
618,NSW,Cunningham,Russell Vale,RUSSELL VALE,-34.3593,150.905,POINT (-34.3593 150.905)
621,NSW,Cunningham,Stanwell Park,STANWELL PARK,-34.2291488,150.984638,POINT (-34.2291488 150.984638)
622,NSW,Cunningham,Sydney (Cunningham),SYDNEY,-33.8730501,151.2064528,POINT (-33.8730501 151.2064528)
623,NSW,Cunningham,Tarrawanna,TARRAWANNA,-34.3803,150.889,POINT (-34.3803 150.889)
624,NSW,Cunningham,Thirroul,THIRROUL,-34.31689,150.91829,POINT (-34.31689 150.91829)
625,NSW,Cunningham,Thirroul East,THIRROUL,-34.31722,150.92182,POINT (-34.31722 150.92182)
626,NSW,Cunningham,Towradgi,FAIRY MEADOW,-34.389,150.902,POINT (-34.389 150.902)
627,NSW,Cunningham,Unanderra,UNANDERRA,-34.4518,150.841,POINT (-34.4518 150.841)
628,NSW,Cunningham,Unanderra South,UNANDERRA,-34.4601,150.836,POINT (-34.4601 150.836)
629,NSW,Cunningham,Unanderra West,UNANDERRA,-34.4552428,150.8286702,POINT (-34.4552428 150.8286702)
630,NSW,Cunningham,Warilla CUNNINGHAM PPVC,WARILLA,-34.5520655,150.8594378,POINT (-34.5520655 150.8594378)
631,NSW,Cunningham,Warrawong,WARRAWONG,-34.481,150.878,POINT (-34.481 150.878)
632,NSW,Cunningham,Warrawong Central,WARRAWONG,-34.4846,150.886,POINT (-34.4846 150.886)
633,NSW,Cunningham,Wollongong,WOLLONGONG,-34.4257176,150.8977103,POINT (-34.4257176 150.8977103)
634,NSW,Cunningham,Wollongong CUNNINGHAM PPVC,WOLLONGONG,-34.4260568,150.8995189,POINT (-34.4260568 150.8995189)
635,NSW,Cunningham,Wollongong East,WOLLONGONG,-34.4225479,150.8962167,POINT (-34.4225479 150.8962167)
636,NSW,Cunningham,Wollongong North,WOLLONGONG,-34.4192,150.895,POINT (-34.4192 150.895)
637,NSW,Cunningham,Wollongong South,WOLLONGONG,-34.4296,150.886,POINT (-34.4296 150.886)
638,NSW,Cunningham,Wollongong West,WEST WOLLONGONG,-34.4298345,150.8617242,POINT (-34.4298345 150.8617242)
639,NSW,Cunningham,Wombarra,SCARBOROUGH,-34.266,150.966,POINT (-34.266 150.966)
640,NSW,Cunningham,Woonona,WOONONA,-34.3465,150.906,POINT (-34.3465 150.906)
641,NSW,Cunningham,Woonona Central,WOONONA,-34.3412038,150.9063809,POINT (-34.3412038 150.9063809)
642,NSW,Cunningham,Woonona East,WOONONA,-34.35151,150.91563,POINT (-34.35151 150.91563)
643,NSW,Dobell,Bateau Bay Central,BATEAU BAY,-33.3811,151.478,POINT (-33.3811 151.478)
644,NSW,Dobell,Bateau Bay East,BATEAU BAY,-33.3913,151.475,POINT (-33.3913 151.475)
645,NSW,Dobell,Bateau Bay South,BATEAU BAY,-33.3862,151.462,POINT (-33.3862 151.462)
646,NSW,Dobell,Berkeley Vale,BERKELEY VALE,-33.3502,151.436,POINT (-33.3502 151.436)
647,NSW,Dobell,Berkeley Vale North,BERKELEY VALE,-33.3397588,151.4339093,POINT (-33.3397588 151.4339093)
648,NSW,Dobell,Blue Haven,BLUE HAVEN,-33.2123,151.504,POINT (-33.2123 151.504)
649,NSW,New England,Armidale PPVC,ARMIDALE,-30.5015616,151.6661993,POINT (-30.5015616 151.6661993)
650,NSW,Dobell,BLV Dobell PPVC,WYONG,-33.2865041,151.4242053,POINT (-33.2865041 151.4242053)
651,NSW,Dobell,Charmhaven,CHARMHAVEN,-33.228,151.504,POINT (-33.228 151.504)
652,NSW,Dobell,Charmhaven DOBELL PPVC,CHARMHAVEN,-33.2384747,151.4943535,POINT (-33.2384747 151.4943535)
653,NSW,Dobell,Chittaway Bay,CHITTAWAY BAY,-33.3255,151.432,POINT (-33.3255 151.432)
654,NSW,Dobell,Chittaway Point,CHITTAWAY POINT,-33.3237,151.441,POINT (-33.3237 151.441)
655,NSW,Dobell,Divisional Office (PREPOLL),WYONG,-33.2867113,151.4240704,POINT (-33.2867113 151.4240704)
656,NSW,Dobell,Erina Heights (Dobell),ERINA HEIGHTS,-33.4281,151.414,POINT (-33.4281 151.414)
657,NSW,Dobell,Forresters Beach,TUMBI UMBI,-33.3956,151.453,POINT (-33.3956 151.453)
658,NSW,Dobell,Glenning Valley,BERKELEY VALE,-33.3423152,151.4257392,POINT (-33.3423152 151.4257392)
659,NSW,Dobell,Gorokan,GOROKAN,-33.2518,151.51,POINT (-33.2518 151.51)
661,NSW,Dobell,Hamlyn Terrace,HAMLYN TERRACE,-33.25055,151.46752,POINT (-33.25055 151.46752)
662,NSW,Dobell,Holgate,HOLGATE,-33.4051161,151.408237,POINT (-33.4051161 151.408237)
663,NSW,Dobell,Jilliby,JILLIBY,-33.2399,151.38,POINT (-33.2399 151.38)
664,NSW,Dobell,Kanwal,KANWAL,-33.2626,151.484,POINT (-33.2626 151.484)
665,NSW,Dobell,Kanwal North,KANWAL,-33.253386,151.4912974,POINT (-33.253386 151.4912974)
666,NSW,Dobell,Killarney Vale,KILLARNEY VALE,-33.3651,151.456,POINT (-33.3651 151.456)
667,NSW,Dobell,Killarney Vale South,KILLARNEY VALE,-33.3763,151.465,POINT (-33.3763 151.465)
668,NSW,Dobell,Kulnura,KULNURA,-33.2261,151.224,POINT (-33.2261 151.224)
669,NSW,Dobell,Lake Haven,LAKE HAVEN,-33.2426,151.509,POINT (-33.2426 151.509)
670,NSW,Dobell,Lisarow,LISAROW,-33.3814544,151.3761694,POINT (-33.3814544 151.3761694)
671,NSW,Dobell,Long Jetty,LONG JETTY,-33.3571,151.485,POINT (-33.3571 151.485)
672,NSW,Dobell,Long Jetty East,LONG JETTY,-33.356,151.494,POINT (-33.356 151.494)
673,NSW,Dobell,Mardi,TUGGERAH,-33.3068,151.418,POINT (-33.3068 151.418)
674,NSW,Dobell,Narara,WYOMING,-33.397,151.346,POINT (-33.397 151.346)
675,NSW,Dobell,Niagara Park (Dobell),NIAGARA PARK,-33.4379,151.439,POINT (-33.4379 151.439)
676,NSW,Dobell,Norah Head,NORAH HEAD,-33.2796,151.566,POINT (-33.2796 151.566)
677,NSW,Dobell,Ourimbah,OURIMBAH,-33.3558,151.368,POINT (-33.3558 151.368)
678,NSW,Dobell,Shelly Beach,SHELLY BEACH,-33.3716,151.476,POINT (-33.3716 151.476)
683,NSW,Dobell,Sydney (Dobell),SYDNEY,-33.8730501,151.2064528,POINT (-33.8730501 151.2064528)
684,NSW,Dobell,The Entrance,THE ENTRANCE,-33.3463,151.493,POINT (-33.3463 151.493)
685,NSW,Dobell,The Entrance North,THE ENTRANCE NORTH,-33.3340559,151.5061275,POINT (-33.3340559 151.5061275)
686,NSW,Dobell,The Entrance PPVC,THE ENTRANCE,-33.3429277,151.4973127,POINT (-33.3429277 151.4973127)
687,NSW,Dobell,Toukley,TOUKLEY,-33.2657,151.54,POINT (-33.2657 151.54)
688,NSW,Dobell,Toukley East,NORAVILLE,-33.2675,151.55,POINT (-33.2675 151.55)
689,NSW,Dobell,Tuggerah,TUGGERAH,-33.3133,151.415,POINT (-33.3133 151.415)
690,NSW,Dobell,Tuggerah PPVC,WYONG,-33.2866277,151.4239458,POINT (-33.2866277 151.4239458)
691,NSW,Dobell,Tuggerawong,TUGGERAWONG,-33.27947,151.4863,POINT (-33.27947 151.4863)
692,NSW,Dobell,Tumbi Umbi,TUMBI UMBI,-33.3655,151.452,POINT (-33.3655 151.452)
693,NSW,Dobell,Wadalba,WADALBA,-33.2658799,151.4674752,POINT (-33.2658799 151.4674752)
694,NSW,Dobell,Wamberal (Dobell),WAMBERAL,-33.4235,151.441,POINT (-33.4235 151.441)
695,NSW,Dobell,Wamberal North,WAMBERAL,-33.4118,151.449,POINT (-33.4118 151.449)
696,NSW,Dobell,Warnervale,WARNERVALE,-33.2422289,151.459347,POINT (-33.2422289 151.459347)
697,NSW,Dobell,Watanobbi,WATANOBBI,-33.2712,151.426,POINT (-33.2712 151.426)
698,NSW,Dobell,Woongarrah,WOONGARRAH,-33.2408,151.484,POINT (-33.2408 151.484)
699,NSW,Dobell,Wyoming (Dobell),WYOMING,-33.409,151.356,POINT (-33.409 151.356)
700,NSW,Dobell,Wyoming East,WYOMING,-33.4099167,151.3661851,POINT (-33.4099167 151.3661851)
701,NSW,Dobell,Wyoming North,WYOMING,-33.4002,151.362,POINT (-33.4002 151.362)
702,NSW,Dobell,Wyong,WYONG,-33.27534,151.412058,POINT (-33.27534 151.412058)
703,NSW,Dobell,Wyong Creek,WYONG CREEK,-33.2676,151.348,POINT (-33.2676 151.348)
704,NSW,Dobell,Wyong East,WYONG,-33.288,151.427,POINT (-33.288 151.427)
705,NSW,Dobell,Yarramalong,YARRAMALONG,-33.223272,151.277577,POINT (-33.223272 151.277577)
706,NSW,Eden-Monaro,Adaminaby,ADAMINABY,-35.9950803,148.7738503,POINT (-35.9950803 148.7738503)
707,NSW,Eden-Monaro,Adelong,ADELONG,-35.308119,148.065613,POINT (-35.308119 148.065613)
708,NSW,Eden-Monaro,Araluen,ARALUEN,-35.6518827,149.8133351,POINT (-35.6518827 149.8133351)
709,NSW,Eden-Monaro,Batlow,BATLOW,-35.5215,148.147,POINT (-35.5215 148.147)
710,NSW,Eden-Monaro,Bega,BEGA,-36.6783,149.839,POINT (-36.6783 149.839)
711,NSW,Eden-Monaro,Bega Central,BEGA,-36.6707,149.841,POINT (-36.6707 149.841)
712,NSW,Eden-Monaro,Bega PPVC,BEGA,-36.6889097,149.8416404,POINT (-36.6889097 149.8416404)
713,NSW,Eden-Monaro,Bemboka,BEMBOKA,-36.6266215,149.5678036,POINT (-36.6266215 149.5678036)
714,NSW,Eden-Monaro,Bermagui,BERMAGUI,-36.428896,150.076031,POINT (-36.428896 150.076031)
715,NSW,Eden-Monaro,Berridale,BERRIDALE,-36.37226,148.82908,POINT (-36.37226 148.82908)
716,NSW,Eden-Monaro,Binalong,BINALONG,-34.6698703,148.6251819,POINT (-34.6698703 148.6251819)
717,NSW,Eden-Monaro,BLV Eden Monaro PPVC,TURNER,-35.3522756,149.2320236,POINT (-35.3522756 149.2320236)
718,NSW,Eden-Monaro,Bodalla,BODALLA,-36.0976,150.053,POINT (-36.0976 150.053)
719,NSW,Eden-Monaro,Bombala,BOMBALA,-36.9168,149.232,POINT (-36.9168 149.232)
720,NSW,Eden-Monaro,Bowning,BOWNING,-34.7674,148.819,POINT (-34.7674 148.819)
721,NSW,Eden-Monaro,Braidwood,BRAIDWOOD,-35.4413,149.798,POINT (-35.4413 149.798)
722,NSW,Eden-Monaro,Bredbo,BREDBO,-35.9539528,149.1481667,POINT (-35.9539528 149.1481667)
723,NSW,Eden-Monaro,Brogo,BROGO,-36.573957,149.8233891,POINT (-36.573957 149.8233891)
724,NSW,Eden-Monaro,Bungendore,BUNGENDORE,-35.2552,149.445,POINT (-35.2552 149.445)
725,NSW,Eden-Monaro,Bungendore North,BUNGENDORE,-35.2516064,149.4417545,POINT (-35.2516064 149.4417545)
726,NSW,Eden-Monaro,Candelo,CANDELO,-36.766319,149.696075,POINT (-36.766319 149.696075)
727,NSW,Eden-Monaro,Captains Flat,CAPTAINS FLAT,-35.59185,149.44533,POINT (-35.59185 149.44533)
728,NSW,Eden-Monaro,Central Tilba,CENTRAL TILBA,-36.3126,150.076,POINT (-36.3126 150.076)
729,NSW,Eden-Monaro,Cobargo,COBARGO,-36.3890048,149.8891246,POINT (-36.3890048 149.8891246)
730,NSW,Eden-Monaro,Cooma,COOMA,-36.2375,149.125,POINT (-36.2375 149.125)
731,NSW,Eden-Monaro,Cooma North,COOMA NORTH,-36.2182844,149.1312397,POINT (-36.2182844 149.1312397)
732,NSW,Eden-Monaro,Cooma PPVC,COOMA,-36.236464,149.1249407,POINT (-36.236464 149.1249407)
733,NSW,Eden-Monaro,Dalgety,DALGETY,-36.5028,148.837,POINT (-36.5028 148.837)
734,NSW,Eden-Monaro,Dalmeny,DALMENY,-36.1618,150.12,POINT (-36.1618 150.12)
735,NSW,Eden-Monaro,Delegate,DELEGATE,-37.0415,148.938,POINT (-37.0415 148.938)
736,NSW,Eden-Monaro,Divisional Office (PREPOLL),TURNER,-35.270926,149.129899,POINT (-35.270926 149.129899)
737,NSW,Eden-Monaro,Eden,EDEN,-37.0561,149.907,POINT (-37.0561 149.907)
738,NSW,Eden-Monaro,Googong,GOOGONG,-35.4229095,149.2338288,POINT (-35.4229095 149.2338288)
739,NSW,Eden-Monaro,Gundaroo,GUNDAROO,-35.0301,149.271,POINT (-35.0301 149.271)
740,NSW,Eden-Monaro,Jerrabomberra,JERRABOMBERRA,-35.3864,149.199,POINT (-35.3864 149.199)
741,NSW,Eden-Monaro,Jindabyne,JINDABYNE,-36.4151245,148.6236223,POINT (-36.4151245 148.6236223)
742,NSW,Eden-Monaro,Jindabyne PPVC,JINDABYNE,-36.4326256,148.6134518,POINT (-36.4326256 148.6134518)
743,NSW,Eden-Monaro,Jingellic,JINGELLIC,-35.9257,147.697,POINT (-35.9257 147.697)
744,NSW,Eden-Monaro,Khancoban,KHANCOBAN,-36.2179037,148.1296333,POINT (-36.2179037 148.1296333)
745,NSW,Eden-Monaro,Majors Creek,MAJORS CREEK,-35.569,149.742,POINT (-35.569 149.742)
746,NSW,Eden-Monaro,Merimbula,MERIMBULA,-36.887,149.917,POINT (-36.887 149.917)
747,NSW,Eden-Monaro,Merimbula Central,MERIMBULA,-36.8925,149.906,POINT (-36.8925 149.906)
748,NSW,Eden-Monaro,Merimbula PPVC,MERIMBULA,-36.8920162,149.9085506,POINT (-36.8920162 149.9085506)
749,NSW,Eden-Monaro,Michelago,MICHELAGO,-35.7056,149.161,POINT (-35.7056 149.161)
750,NSW,Eden-Monaro,Murrumbateman,MURRUMBATEMAN,-34.9694,149.03126,POINT (-34.9694 149.03126)
751,NSW,Hunter,Charlestown HUNTER PPVC,CHARLESTOWN,-32.9645896,151.6966374,POINT (-32.9645896 151.6966374)
752,NSW,Eden-Monaro,Narooma,NAROOMA,-36.2162367,150.1291792,POINT (-36.2162367 150.1291792)
753,NSW,Eden-Monaro,Narooma PPVC,NAROOMA,-36.2167801,150.1308741,POINT (-36.2167801 150.1308741)
754,NSW,Eden-Monaro,Nimmitabel,NIMMITABEL,-36.5107,149.289,POINT (-36.5107 149.289)
755,NSW,Eden-Monaro,Pambula,PAMBULA,-36.9264058,149.8720612,POINT (-36.9264058 149.8720612)
756,NSW,Eden-Monaro,Perisher Valley,PERISHER VALLEY,-36.3895,148.447,POINT (-36.3895 148.447)
757,NSW,Eden-Monaro,Quaama,QUAAMA,-36.4642,149.871,POINT (-36.4642 149.871)
758,NSW,Eden-Monaro,Queanbeyan,QUEANBEYAN,-35.3571625,149.2355025,POINT (-35.3571625 149.2355025)
759,NSW,Eden-Monaro,Queanbeyan Central,QUEANBEYAN,-35.353979,149.235256,POINT (-35.353979 149.235256)
760,NSW,Eden-Monaro,Queanbeyan East,QUEANBEYAN EAST,-35.3445,149.246,POINT (-35.3445 149.246)
761,NSW,Eden-Monaro,Queanbeyan Heights,CRESTWOOD,-35.3527,149.222,POINT (-35.3527 149.222)
762,NSW,Eden-Monaro,Queanbeyan North,QUEANBEYAN,-35.35234,149.23094,POINT (-35.35234 149.23094)
763,NSW,Eden-Monaro,Queanbeyan PPVC,QUEANBEYAN,-35.3526312,149.2342423,POINT (-35.3526312 149.2342423)
764,NSW,Eden-Monaro,Queanbeyan South,KARABAR,-35.3655795,149.229151,POINT (-35.3655795 149.229151)
765,NSW,Eden-Monaro,Queanbeyan West,CRESTWOOD,-35.3478,149.215,POINT (-35.3478 149.215)
766,NSW,Eden-Monaro,Rosewood,ROSEWOOD,-35.6705,147.862,POINT (-35.6705 147.862)
772,NSW,Eden-Monaro,Special Hospital Team 6,TUMUT,-35.3001774,148.214581,POINT (-35.3001774 148.214581)
773,NSW,Eden-Monaro,Sutton,SUTTON,-35.1648,149.254,POINT (-35.1648 149.254)
774,NSW,Eden-Monaro,Sydney (Eden-Monaro),SYDNEY,-33.8730501,151.2064528,POINT (-33.8730501 151.2064528)
775,NSW,Eden-Monaro,Talbingo,TALBINGO,-35.5803,148.301,POINT (-35.5803 148.301)
776,NSW,Eden-Monaro,Tanja,TANJA,-36.6408,149.975,POINT (-36.6408 149.975)
777,NSW,Eden-Monaro,Tathra,TATHRA,-36.7335957,149.9787608,POINT (-36.7335957 149.9787608)
778,NSW,Eden-Monaro,Thredbo,THREDBO VILLAGE,-36.5063,148.301,POINT (-36.5063 148.301)
779,NSW,Eden-Monaro,Tooma,TOOMA,-35.9648,148.058,POINT (-35.9648 148.058)
780,NSW,Eden-Monaro,Towamba,TOWAMBA,-37.0848,149.695,POINT (-37.0848 149.695)
781,NSW,Eden-Monaro,Tumbarumba,TUMBARUMBA,-35.7847,148.017,POINT (-35.7847 148.017)
782,NSW,Eden-Monaro,Tumut,TUMUT,-35.3069305,148.2109308,POINT (-35.3069305 148.2109308)
783,NSW,Eden-Monaro,Tumut East,TUMUT,-35.3126,148.219,POINT (-35.3126 148.219)
784,NSW,Eden-Monaro,Tumut PPVC,TUMUT,-35.3025921,148.2211508,POINT (-35.3025921 148.2211508)
785,NSW,Eden-Monaro,Tura Beach,TURA BEACH,-36.85,149.925,POINT (-36.85 149.925)
786,NSW,Eden-Monaro,Wamboin,WAMBOIN,-35.252,149.306,POINT (-35.252 149.306)
787,NSW,Eden-Monaro,Wee Jasper,WEE JASPER,-35.1106585,148.6732364,POINT (-35.1106585 148.6732364)
788,NSW,Eden-Monaro,Wolumla,WOLUMLA,-36.834,149.81,POINT (-36.834 149.81)
789,NSW,Eden-Monaro,Wyndham,WYNDHAM,-36.9292,149.646,POINT (-36.9292 149.646)
790,NSW,Eden-Monaro,Yass,YASS,-34.8426,148.912,POINT (-34.8426 148.912)
791,NSW,Eden-Monaro,Yass North,YASS,-34.8342,148.912,POINT (-34.8342 148.912)
792,NSW,Eden-Monaro,Yass PPVC,YASS,-34.8396998,148.9117192,POINT (-34.8396998 148.9117192)
793,NSW,Farrer,Albury,ALBURY,-36.0830081,146.9188145,POINT (-36.0830081 146.9188145)
794,NSW,Farrer,Albury Central,ALBURY,-36.0732767,146.9167639,POINT (-36.0732767 146.9167639)
795,NSW,Farrer,Albury East,EAST ALBURY,-36.0711246,146.9383558,POINT (-36.0711246 146.9383558)
796,NSW,Farrer,Albury FARRER PPVC,ALBURY,-36.0798003,146.9233189,POINT (-36.0798003 146.9233189)
797,NSW,Farrer,Albury North,NORTH ALBURY,-36.0641,146.932,POINT (-36.0641 146.932)
798,NSW,Farrer,Albury West,WEST ALBURY,-36.0783,146.895,POINT (-36.0783 146.895)
799,NSW,Farrer,Balranald,BALRANALD,-34.6361947,143.5635986,POINT (-34.6361947 143.5635986)
800,NSW,Farrer,Barellan,BARELLAN,-34.2878,146.572,POINT (-34.2878 146.572)
801,NSW,Farrer,Barham,BARHAM,-35.6301297,144.1272305,POINT (-35.6301297 144.1272305)
802,NSW,Farrer,Barooga,BAROOGA,-35.9129125,145.6952916,POINT (-35.9129125 145.6952916)
803,NSW,Farrer,Beelbangera,BEELBANGERA,-34.253,146.101,POINT (-34.253 146.101)
804,NSW,Farrer,Berrigan,BERRIGAN,-35.6594,145.815,POINT (-35.6594 145.815)
805,NSW,Farrer,Blighty,BLIGHTY,-35.5887,145.348,POINT (-35.5887 145.348)
806,NSW,Farrer,BLV Farrer PPVC,ALBURY,-36.0785986,146.9169595,POINT (-36.0785986 146.9169595)
807,NSW,Farrer,Bunnaloo,BUNNALOO,-35.7838,144.595,POINT (-35.7838 144.595)
808,NSW,Farrer,Buronga,BURONGA,-34.1723164,142.1997512,POINT (-34.1723164 142.1997512)
809,NSW,Farrer,Burrumbuttock,BURRUMBUTTOCK,-35.8378087,146.8000595,POINT (-35.8378087 146.8000595)
810,NSW,Farrer,Carrathool,CARRATHOOL,-34.4084,145.433,POINT (-34.4084 145.433)
811,NSW,Farrer,Coleambally,COLEAMBALLY,-34.8052,145.884,POINT (-34.8052 145.884)
812,NSW,Farrer,Corowa,COROWA,-35.9924764,146.3937684,POINT (-35.9924764 146.3937684)
813,NSW,Farrer,Corowa Central,COROWA,-35.99418,146.3809,POINT (-35.99418 146.3809)
814,NSW,Farrer,Corowa PPVC,COROWA,-35.9947946,146.3911984,POINT (-35.9947946 146.3911984)
815,NSW,Farrer,Corowa South,COROWA,-36.0212,146.376,POINT (-36.0212 146.376)
816,NSW,Farrer,Culcairn,CULCAIRN,-35.6679,147.04,POINT (-35.6679 147.04)
817,NSW,Farrer,Dareton,DARETON,-34.0915,142.041,POINT (-34.0915 142.041)
818,NSW,Farrer,Darlington Point,DARLINGTON POINT,-34.568451,145.998993,POINT (-34.568451 145.998993)
819,NSW,Farrer,Deniliquin,DENILIQUIN,-35.5359,144.961,POINT (-35.5359 144.961)
820,NSW,Farrer,Deniliquin North,DENILIQUIN,-35.5258,144.983,POINT (-35.5258 144.983)
821,NSW,Farrer,Deniliquin PPVC,DENILIQUIN,-35.5303518,144.9636747,POINT (-35.5303518 144.9636747)
822,NSW,Farrer,Deniliquin West,DENILIQUIN,-35.5246,144.952,POINT (-35.5246 144.952)
823,NSW,Farrer,Divisional Office (PREPOLL),ALBURY,-36.078464,146.917022,POINT (-36.078464 146.917022)
824,NSW,Farrer,Echuca FARRER PPVC,ECHUCA,-36.1278663,144.7482858,POINT (-36.1278663 144.7482858)
825,NSW,Farrer,Euston,EUSTON,-34.5754486,142.7454238,POINT (-34.5754486 142.7454238)
826,NSW,Farrer,Finley,FINLEY,-35.6402,145.573,POINT (-35.6402 145.573)
827,NSW,Farrer,Gerogery,GEROGERY,-35.8368001,146.9923219,POINT (-35.8368001 146.9923219)
828,NSW,Farrer,Glenroy,NORTH ALBURY,-36.0556,146.917,POINT (-36.0556 146.917)
829,NSW,Farrer,Goolgowi,GOOLGOWI,-33.9769,145.709,POINT (-33.9769 145.709)
830,NSW,Farrer,Griffith,GRIFFITH,-34.2864,146.041,POINT (-34.2864 146.041)
831,NSW,Farrer,Griffith Central PPVC,GRIFFITH,-34.2931498,146.0491823,POINT (-34.2931498 146.0491823)
832,NSW,Farrer,Griffith Driver,GRIFFITH,-34.282,146.07,POINT (-34.282 146.07)
833,NSW,Farrer,Griffith North,GRIFFITH,-34.2803,146.048,POINT (-34.2803 146.048)
834,NSW,Farrer,Griffith PPVC,GRIFFITH,-34.286557,146.0413659,POINT (-34.286557 146.0413659)
835,NSW,Farrer,Griffith West,GRIFFITH,-34.2916,146.041,POINT (-34.2916 146.041)
836,NSW,Farrer,Hanwood,HANWOOD,-34.33,146.042,POINT (-34.33 146.042)
837,NSW,Farrer,Hay,HAY,-34.5057208,144.8405964,POINT (-34.5057208 144.8405964)
838,NSW,Farrer,Henty,HENTY,-35.516552,147.031178,POINT (-35.516552 147.031178)
839,NSW,Farrer,Hillston,HILLSTON,-33.4798,145.54,POINT (-33.4798 145.54)
840,NSW,Farrer,Holbrook,HOLBROOK,-35.7174826,147.3198368,POINT (-35.7174826 147.3198368)
841,NSW,Farrer,Howlong,HOWLONG,-35.9806,146.636,POINT (-35.9806 146.636)
842,NSW,Farrer,Hume,LAVINGTON,-36.049829,146.9474613,POINT (-36.049829 146.9474613)
843,NSW,Farrer,Jerilderie,JERILDERIE,-35.3545973,145.7287906,POINT (-35.3545973 145.7287906)
844,NSW,Farrer,Jindera,JINDERA,-35.9588466,146.8867958,POINT (-35.9588466 146.8867958)
845,NSW,Farrer,Koraleigh,KORALEIGH,-35.1564,143.418,POINT (-35.1564 143.418)
846,NSW,Farrer,Lake Wyangan,LAKE WYANGAN,-34.2482,146.033,POINT (-34.2482 146.033)
847,NSW,Farrer,Lavington,LAVINGTON,-36.0291,146.936,POINT (-36.0291 146.936)
848,NSW,Farrer,Lavington East,LAVINGTON,-36.0400161,146.9478591,POINT (-36.0400161 146.9478591)
849,NSW,Farrer,Leeton,LEETON,-34.5536887,146.4042971,POINT (-34.5536887 146.4042971)
850,NSW,Farrer,Leeton North,LEETON,-34.54722,146.40608,POINT (-34.54722 146.40608)
851,NSW,Farrer,Leeton Parkview,LEETON,-34.5624,146.397,POINT (-34.5624 146.397)
852,NSW,Farrer,Leeton PPVC,LEETON,-34.5505531,146.406185,POINT (-34.5505531 146.406185)
853,NSW,Farrer,Leeton South,LEETON,-34.5632,146.413,POINT (-34.5632 146.413)
854,NSW,Farrer,Mathoura,MATHOURA,-35.8134,144.898,POINT (-35.8134 144.898)
855,NSW,Farrer,Mildura FARRER PPVC,MILDURA,-34.1861175,142.1642546,POINT (-34.1861175 142.1642546)
856,NSW,Farrer,Moama,MOAMA,-36.114623,144.7623497,POINT (-36.114623 144.7623497)
857,NSW,Farrer,Moulamein,MOULAMEIN,-35.089171,144.0335065,POINT (-35.089171 144.0335065)
858,NSW,Farrer,Mulwala,MULWALA,-35.9880064,146.0063004,POINT (-35.9880064 146.0063004)
859,NSW,Farrer,Murray Downs,MURRAY DOWNS,-35.3453611,143.5993074,POINT (-35.3453611 143.5993074)
860,NSW,Farrer,Narrandera,NARRANDERA,-34.7494,146.555,POINT (-34.7494 146.555)
861,NSW,Farrer,Narrandera East,NARRANDERA,-34.7435,146.566,POINT (-34.7435 146.566)
862,NSW,Farrer,Narrandera PPVC,NARRANDERA,-34.7464294,146.551518,POINT (-34.7464294 146.551518)
863,NSW,Farrer,Oaklands,OAKLANDS,-35.5526167,146.1698198,POINT (-35.5526167 146.1698198)
864,NSW,Farrer,Rankins Springs,RANKINS SPRINGS,-33.8418,146.262,POINT (-33.8418 146.262)
872,NSW,Farrer,Springdale Heights,SPRINGDALE HEIGHTS,-36.0319,146.95,POINT (-36.0319 146.95)
873,NSW,Farrer,Sydney (Farrer),SYDNEY,-33.8730501,151.2064528,POINT (-33.8730501 151.2064528)
874,NSW,Farrer,Table Top,TABLE TOP,-35.967892,147.0069981,POINT (-35.967892 147.0069981)
875,NSW,Farrer,Tharbogang,THARBOGANG,-34.2605645,145.9842136,POINT (-34.2605645 145.9842136)
876,NSW,Farrer,Thurgoona,THURGOONA,-36.047,146.983,POINT (-36.047 146.983)
877,NSW,Farrer,Thurgoona East,THURGOONA,-36.0493232,146.9915607,POINT (-36.0493232 146.9915607)
878,NSW,Farrer,Tocumwal,TOCUMWAL,-35.8143,145.568,POINT (-35.8143 145.568)
879,NSW,Farrer,Tooleybuc,TOOLEYBUC,-35.0269,143.338,POINT (-35.0269 143.338)
880,NSW,Farrer,Urana,URANA,-35.3279,146.267,POINT (-35.3279 146.267)
881,NSW,Farrer,Wakool,WAKOOL,-35.4669,144.393,POINT (-35.4669 144.393)
882,NSW,Farrer,Walbundrie,WALBUNDRIE,-35.6875394,146.7262383,POINT (-35.6875394 146.7262383)
883,NSW,Farrer,Walla Walla,WALLA WALLA,-35.7591,146.902,POINT (-35.7591 146.902)
884,NSW,Farrer,Wamoon,WAMOON,-34.5259,146.331,POINT (-34.5259 146.331)
885,NSW,Farrer,Wentworth,WENTWORTH,-34.103,141.919,POINT (-34.103 141.919)
886,NSW,Farrer,Whitton,WHITTON,-34.5193,146.181,POINT (-34.5193 146.181)
887,NSW,Farrer,Yanco,YANCO,-34.5983611,146.4115042,POINT (-34.5983611 146.4115042)
888,NSW,Farrer,Yenda,YENDA,-34.252889,146.1978579,POINT (-34.252889 146.1978579)
889,NSW,Farrer,Yoogali,YOOGALI,-34.2999,146.086,POINT (-34.2999 146.086)
890,NSW,Fowler,Abbotsbury,ABBOTSBURY,-33.8692425,150.8695253,POINT (-33.8692425 150.8695253)
891,NSW,Fowler,BLV Fowler PPVC,PARRAMATTA,-33.8149731,151.0063857,POINT (-33.8149731 151.0063857)
892,NSW,Fowler,Bonnyrigg (Fowler),BONNYRIGG,-33.8884,150.888,POINT (-33.8884 150.888)
894,NSW,Fowler,Bonnyrigg Central (Fowler),BONNYRIGG,-33.8946581,150.8918914,POINT (-33.8946581 150.8918914)
895,NSW,Fowler,Bossley Park,BOSSLEY PARK,-33.8594,150.883,POINT (-33.8594 150.883)
896,NSW,Fowler,Bossley Park East,BOSSLEY PARK,-33.867,150.89,POINT (-33.867 150.89)
897,NSW,Fowler,Bossley Park South,BOSSLEY PARK,-33.871,150.874,POINT (-33.871 150.874)
898,NSW,Fowler,Cabramatta,CABRAMATTA,-33.8921185,150.9392877,POINT (-33.8921185 150.9392877)
899,NSW,Fowler,Cabramatta East,CABRAMATTA,-33.8954,150.942,POINT (-33.8954 150.942)
900,NSW,Fowler,Cabramatta South,CABRAMATTA,-33.8989,150.929,POINT (-33.8989 150.929)
901,NSW,Fowler,Cabramatta West,CABRAMATTA,-33.8967685,150.9229637,POINT (-33.8967685 150.9229637)
902,NSW,Fowler,Cabramatta West Central,CABRAMATTA WEST,-33.8897,150.908,POINT (-33.8897 150.908)
903,NSW,Fowler,Canley Heights,CANLEY HEIGHTS,-33.884,150.923,POINT (-33.884 150.923)
904,NSW,Fowler,Canley Vale,CANLEY VALE,-33.8866,150.937,POINT (-33.8866 150.937)
905,NSW,Fowler,Chipping Norton,CHIPPING NORTON,-33.9120311,150.9598224,POINT (-33.9120311 150.9598224)
906,NSW,Fowler,Divisional Office (PREPOLL),PARRAMATTA,-33.8149755,151.0063881,POINT (-33.8149755 151.0063881)
907,NSW,Fowler,Edensor Park,EDENSOR PARK,-33.8824409,150.8757845,POINT (-33.8824409 150.8757845)
908,NSW,Fowler,Edensor Park North,EDENSOR PARK,-33.8745,150.879,POINT (-33.8745 150.879)
909,NSW,Fowler,Fairfield FOWLER PPVC,FAIRFIELD,-33.8707654,150.9543674,POINT (-33.8707654 150.9543674)
910,NSW,Fowler,Fairfield West (Fowler),FAIRFIELD WEST,-33.86856,150.92455,POINT (-33.86856 150.92455)
911,NSW,Fowler,Greenfield Park,GREENFIELD PARK,-33.8735,150.891,POINT (-33.8735 150.891)
912,NSW,Fowler,Hinchinbrook FOWLER PPVC,HINCHINBROOK,-33.9183975,150.8679573,POINT (-33.9183975 150.8679573)
913,NSW,Fowler,Lansvale,CANLEY VALE,-33.8915,150.953,POINT (-33.8915 150.953)
914,NSW,Fowler,Lansvale East,LANSVALE,-33.8982,150.964,POINT (-33.8982 150.964)
915,NSW,Fowler,Liverpool,LIVERPOOL,-33.9238,150.926,POINT (-33.9238 150.926)
916,NSW,Fowler,Liverpool Central,LIVERPOOL,-33.9171119,150.9143894,POINT (-33.9171119 150.9143894)
917,NSW,Fowler,Liverpool FOWLER PPVC,LIVERPOOL,-33.922373,150.9215031,POINT (-33.922373 150.9215031)
918,NSW,Fowler,Liverpool South,LIVERPOOL,-33.9265,150.924,POINT (-33.9265 150.924)
919,NSW,Fowler,Liverpool West (Fowler),LIVERPOOL,-33.9271,150.907,POINT (-33.9271 150.907)
920,NSW,Fowler,Mount Pritchard (Fowler),MOUNT PRITCHARD,-33.9004,150.9,POINT (-33.9004 150.9)
921,NSW,Fowler,Mount Pritchard East,MOUNT PRITCHARD,-33.9049,150.912,POINT (-33.9049 150.912)
922,NSW,Fowler,Newbridge Heights,CHIPPING NORTON,-33.9266,150.952,POINT (-33.9266 150.952)
923,NSW,Fowler,St Johns Park,ST JOHNS PARK,-33.8874,150.898,POINT (-33.8874 150.898)
924,NSW,Fowler,Smithfield West (Fowler),SMITHFIELD,-33.8572671,150.9171256,POINT (-33.8572671 150.9171256)
926,NSW,Fowler,Sydney (Fowler),SYDNEY,-33.8730501,151.2064528,POINT (-33.8730501 151.2064528)
927,NSW,Fowler,Villawood,VILLAWOOD,-33.8854807,150.9698132,POINT (-33.8854807 150.9698132)
928,NSW,Fowler,Villawood North,FAIRFIELD EAST,-33.8766,150.972,POINT (-33.8766 150.972)
929,NSW,Fowler,Wakeley,WAKELEY,-33.8791516,150.9116976,POINT (-33.8791516 150.9116976)
930,NSW,Fowler,Warwick Farm,WARWICK FARM,-33.9106,150.929,POINT (-33.9106 150.929)
931,NSW,Fowler,Wetherill Park (Fowler),WETHERILL PARK,-33.8545,150.906,POINT (-33.8545 150.906)
932,NSW,Fowler,Wetherill Park FOWLER PPVC,WETHERILL PARK,-33.8450923,150.8935589,POINT (-33.8450923 150.8935589)
933,NSW,Fowler,Yennora (Fowler),YENNORA,-33.867,150.971,POINT (-33.867 150.971)
934,NSW,Gilmore,Basin View,BASIN VIEW,-35.0913,150.564,POINT (-35.0913 150.564)
935,NSW,Gilmore,Batehaven,BATEHAVEN,-35.72951,150.19521,POINT (-35.72951 150.19521)
936,NSW,Gilmore,Batemans Bay,BATEMANS BAY,-35.71174,150.17821,POINT (-35.71174 150.17821)
937,NSW,Gilmore,Batemans Bay PPVC,BATEMANS BAY,-35.704491,150.1770732,POINT (-35.704491 150.1770732)
938,NSW,Gilmore,Bawley Point,KIOLOA,-35.5569048,150.3771735,POINT (-35.5569048 150.3771735)
939,NSW,Gilmore,Berry,BERRY,-34.7769476,150.6905088,POINT (-34.7769476 150.6905088)
940,NSW,Gilmore,BLV Gilmore PPVC,WOLLONGONG,-34.8752954,150.6039918,POINT (-34.8752954 150.6039918)
941,NSW,Gilmore,Bomaderry,BOMADERRY,-34.8486,150.608,POINT (-34.8486 150.608)
942,NSW,Gilmore,Broulee,BROULEE,-35.8452,150.173,POINT (-35.8452 150.173)
943,NSW,Gilmore,Burrill Lake,BURRILL LAKE,-35.3849,150.453,POINT (-35.3849 150.453)
944,NSW,Gilmore,Callala Bay,CALLALA BAY,-34.9952,150.715,POINT (-34.9952 150.715)
945,NSW,Gilmore,Callala Beach,CALLALA BEACH,-35.0127,150.693,POINT (-35.0127 150.693)
946,NSW,Gilmore,Cambewarra,CAMBEWARRA VILLAGE,-34.8209,150.557,POINT (-34.8209 150.557)
947,NSW,Gilmore,Cudmirrah,CUDMIRRAH,-35.1979405,150.5586545,POINT (-35.1979405 150.5586545)
948,NSW,Gilmore,Culburra,CULBURRA BEACH,-34.933,150.762,POINT (-34.933 150.762)
949,NSW,Gilmore,Currarong,CURRARONG,-35.015,150.824,POINT (-35.015 150.824)
950,NSW,Gilmore,Divisional Office (PREPOLL),WOLLONGONG,-34.4270111,150.8981072,POINT (-34.4270111 150.8981072)
951,NSW,Gilmore,Erowal Bay,EROWAL BAY,-35.0998564,150.6533213,POINT (-35.0998564 150.6533213)
952,NSW,Gilmore,Falls Creek,FALLS CREEK,-34.9661014,150.593852,POINT (-34.9661014 150.593852)
953,NSW,Gilmore,Gerringong,GERRINGONG,-34.7495106,150.8220506,POINT (-34.7495106 150.8220506)
954,NSW,Gilmore,Gerroa,GERROA,-34.7704,150.817,POINT (-34.7704 150.817)
955,NSW,Gilmore,Greenwell Point,GREENWELL POINT,-34.9077056,150.7303796,POINT (-34.9077056 150.7303796)
956,NSW,Gilmore,Huskisson,HUSKISSON,-35.0351,150.667,POINT (-35.0351 150.667)
957,NSW,Gilmore,Jamberoo,JAMBEROO,-34.6443,150.773,POINT (-34.6443 150.773)
958,NSW,Gilmore,Kangaroo Valley,KANGAROO VALLEY,-34.7356042,150.5323415,POINT (-34.7356042 150.5323415)
959,NSW,Gilmore,Kiama,KIAMA,-34.6744,150.857,POINT (-34.6744 150.857)
960,NSW,Gilmore,Kiama Downs,KIAMA DOWNS,-34.6423108,150.8455416,POINT (-34.6423108 150.8455416)
961,NSW,Gilmore,Kiama PPVC,KIAMA,-34.6745998,150.85693,POINT (-34.6745998 150.85693)
962,NSW,Gilmore,Kiama South,KIAMA,-34.6813,150.846,POINT (-34.6813 150.846)
963,NSW,Gilmore,Lake Conjola,LAKE CONJOLA,-35.2698,150.489,POINT (-35.2698 150.489)
964,NSW,Gilmore,Long Beach,LONG BEACH,-35.695,150.234,POINT (-35.695 150.234)
965,NSW,Gilmore,Malua Bay,MALUA BAY,-35.7927,150.231,POINT (-35.7927 150.231)
966,NSW,Gilmore,Manyana,MANYANA,-35.2583,150.511,POINT (-35.2583 150.511)
967,NSW,Gilmore,Milton,MILTON,-35.3176112,150.4369432,POINT (-35.3176112 150.4369432)
968,NSW,Gilmore,Minnamurra,MINNAMURRA,-34.6251,150.853,POINT (-34.6251 150.853)
969,NSW,Gilmore,Mogo,MOGO,-35.7852,150.14,POINT (-35.7852 150.14)
970,NSW,Gilmore,Moruya South,MORUYA,-35.9202059,150.0801316,POINT (-35.9202059 150.0801316)
971,NSW,Gilmore,Narrawallee,NARRAWALLEE,-35.3209,150.465,POINT (-35.3209 150.465)
972,NSW,Gilmore,Nelligen,NELLIGEN,-35.6479,150.142,POINT (-35.6479 150.142)
973,NSW,Gilmore,Nowra,NOWRA,-34.8795,150.601,POINT (-34.8795 150.601)
974,NSW,Gilmore,Nowra Bomaderry,NORTH NOWRA,-34.8597,150.59,POINT (-34.8597 150.59)
975,NSW,Gilmore,Nowra Centre,NOWRA,-34.8746,150.6,POINT (-34.8746 150.6)
976,NSW,Gilmore,Nowra East,NOWRA EAST,-34.8833174,150.6080309,POINT (-34.8833174 150.6080309)
977,NSW,Gilmore,Nowra Hill,NOWRA HILL,-34.9361,150.566,POINT (-34.9361 150.566)
978,NSW,Gilmore,Nowra North,NORTH NOWRA,-34.8557,150.577,POINT (-34.8557 150.577)
979,NSW,Gilmore,Nowra PPVC,NOWRA,-34.8670937,150.6029031,POINT (-34.8670937 150.6029031)
980,NSW,Macquarie,Penrith MACQUARIE PPVC,PENRITH,-33.7526208,150.6945601,POINT (-33.7526208 150.6945601)
981,NSW,Gilmore,Nowra South,NOWRA,-34.8962,150.61,POINT (-34.8962 150.61)
982,NSW,Gilmore,Orient Point,ORIENT POINT,-34.9097,150.748,POINT (-34.9097 150.748)
983,NSW,Gilmore,St Georges Basin,ST GEORGES BASIN,-35.0972,150.5989,POINT (-35.0972 150.5989)
984,NSW,Gilmore,Sanctuary Point,SANCTUARY POINT,-35.1059716,150.6295002,POINT (-35.1059716 150.6295002)
985,NSW,Gilmore,Shoalhaven Heads,SHOALHAVEN HEADS,-34.8487,150.742,POINT (-34.8487 150.742)
986,NSW,Gilmore,South Durras,DURRAS SOUTH,-35.6642,150.292,POINT (-35.6642 150.292)
991,NSW,Gilmore,Sunshine Bay,SUNSHINE BAY,-35.7409626,150.2104162,POINT (-35.7409626 150.2104162)
992,NSW,Gilmore,Sussex Inlet,SUSSEX INLET,-35.1660601,150.585926,POINT (-35.1660601 150.585926)
993,NSW,Gilmore,Sydney (Gilmore),SYDNEY,-33.8730501,151.2064528,POINT (-33.8730501 151.2064528)
994,NSW,Gilmore,Terara,TERARA,-34.8666928,150.6303443,POINT (-34.8666928 150.6303443)
995,NSW,Gilmore,Tomakin,TOMAKIN,-35.8229,150.189,POINT (-35.8229 150.189)
996,NSW,Gilmore,Tomerong,TOMERONG,-35.0543545,150.5865033,POINT (-35.0543545 150.5865033)
997,NSW,Gilmore,Tuross Head,TUROSS HEAD,-36.0386716,150.1244187,POINT (-36.0386716 150.1244187)
998,NSW,Gilmore,Ulladulla,ULLADULLA,-35.3562,150.474,POINT (-35.3562 150.474)
999,NSW,Gilmore,Ulladulla PPVC,ULLADULLA,-35.3562962,150.4743719,POINT (-35.3562962 150.4743719)
1000,NSW,Gilmore,Vincentia,VINCENTIA,-35.0733285,150.6703232,POINT (-35.0733285 150.6703232)
1001,NSW,Gilmore,Vincentia PPVC,VINCENTIA,-35.0707487,150.6728032,POINT (-35.0707487 150.6728032)
1002,NSW,Gilmore,Wandandian,WANDANDIAN,-35.0887804,150.5110376,POINT (-35.0887804 150.5110376)
1003,NSW,Gilmore,Werri Beach,WERRI BEACH,-34.7374,150.833,POINT (-34.7374 150.833)
1004,NSW,Grayndler,Annandale (Grayndler),ANNANDALE,-33.8858,151.17,POINT (-33.8858 151.17)
1005,NSW,Grayndler,Annandale Central,ANNANDALE,-33.8828756,151.1705301,POINT (-33.8828756 151.1705301)
1006,NSW,Grayndler,Annandale North,ANNANDALE,-33.878,151.172,POINT (-33.878 151.172)
1007,NSW,Grayndler,Ashfield (Grayndler),ASHFIELD,-33.8888,151.126,POINT (-33.8888 151.126)
1008,NSW,Grayndler,Ashfield East (Grayndler),ASHFIELD,-33.8899929,151.1272654,POINT (-33.8899929 151.1272654)
1009,NSW,Grayndler,Ashfield GRAYNDLER PPVC,ASHFIELD,-33.888913,151.124244,POINT (-33.888913 151.124244)
1010,NSW,Grayndler,Ashfield North (Grayndler),ASHFIELD,-33.8813621,151.127984,POINT (-33.8813621 151.127984)
1011,NSW,Grayndler,Ashfield South (Grayndler),ASHFIELD,-33.9023,151.13,POINT (-33.9023 151.13)
1012,NSW,Grayndler,Balmain,BALMAIN,-33.8577,151.171,POINT (-33.8577 151.171)
1013,NSW,Grayndler,Balmain Central,BALMAIN,-33.859,151.184,POINT (-33.859 151.184)
1014,NSW,Grayndler,Balmain East,BALMAIN,-33.8558,151.193,POINT (-33.8558 151.193)
1015,NSW,Grayndler,Birchgrove,BALMAIN,-33.8533,151.177,POINT (-33.8533 151.177)
1016,NSW,Grayndler,Birchgrove East,BALMAIN,-33.8525826,151.1794515,POINT (-33.8525826 151.1794515)
1017,NSW,Grayndler,BLV Grayndler PPVC,HAYMARKET,-33.8781171,151.2064057,POINT (-33.8781171 151.2064057)
1018,NSW,Grayndler,Camperdown South (Grayndler),NEWTOWN,-33.8956,151.178,POINT (-33.8956 151.178)
1019,NSW,Grayndler,Canterbury North (Grayndler),CANTERBURY,-33.9088,151.123,POINT (-33.9088 151.123)
1020,NSW,Grayndler,Central Sydney GRAYNDLER PPVC,HAYMARKET,-33.8824351,151.2063239,POINT (-33.8824351 151.2063239)
1021,NSW,Grayndler,Divisional Office (PREPOLL),HAYMARKET,-33.8783791,151.2065077,POINT (-33.8783791 151.2065077)
1022,NSW,Grayndler,Dobroyd Point,HABERFIELD,-33.8742,151.14,POINT (-33.8742 151.14)
1023,NSW,Grayndler,Dulwich Hill,DULWICH HILL,-33.9035194,151.1442151,POINT (-33.9035194 151.1442151)
1024,NSW,Grayndler,Dulwich Hill South,DULWICH HILL,-33.9054,151.14,POINT (-33.9054 151.14)
1025,NSW,Grayndler,Dulwich Hill West,DULWICH HILL,-33.9029206,151.1422146,POINT (-33.9029206 151.1422146)
1026,NSW,Grayndler,Enmore,ENMORE,-33.90276,151.17258,POINT (-33.90276 151.17258)
1027,NSW,Grayndler,Glebe GRAYNDLER PPVC,FOREST LODGE,-33.8761055,151.1783737,POINT (-33.8761055 151.1783737)
1028,NSW,Grayndler,Haberfield,HABERFIELD,-33.8801008,151.1394421,POINT (-33.8801008 151.1394421)
1029,NSW,Grayndler,Haberfield West,HABERFIELD,-33.8795,151.135,POINT (-33.8795 151.135)
1030,NSW,Grayndler,Haymarket GRAYNDLER PPVC,SYDNEY,-33.8778922,151.2080719,POINT (-33.8778922 151.2080719)
1031,NSW,Grayndler,Hurlstone Park (Grayndler),HURLSTONE PARK,-33.908507,151.132444,POINT (-33.908507 151.132444)
1032,NSW,Grayndler,Leichhardt,LEICHHARDT,-33.8833,151.157,POINT (-33.8833 151.157)
1033,NSW,Grayndler,Leichhardt East,LEICHHARDT,-33.8795,151.159,POINT (-33.8795 151.159)
1034,NSW,Grayndler,Leichhardt GRAYNDLER PPVC,LEICHHARDT,-33.8833554,151.1588032,POINT (-33.8833554 151.1588032)
1035,NSW,Grayndler,Leichhardt South,LEICHHARDT,-33.8846,151.161,POINT (-33.8846 151.161)
1036,NSW,Grayndler,Leichhardt West,LEICHHARDT,-33.8866,151.147,POINT (-33.8866 151.147)
1037,NSW,Grayndler,Lewisham,LEWISHAM,-33.8978438,151.1460595,POINT (-33.8978438 151.1460595)
1038,NSW,Grayndler,Lilyfield,LILYFIELD,-33.8722491,151.1564406,POINT (-33.8722491 151.1564406)
1039,NSW,Grayndler,Lilyfield North,LILYFIELD,-33.869,151.167166,POINT (-33.869 151.167166)
1040,NSW,Grayndler,Marrickville,MARRICKVILLE,-33.909,151.154,POINT (-33.909 151.154)
1041,NSW,Grayndler,Marrickville Central,MARRICKVILLE,-33.9062,151.162,POINT (-33.9062 151.162)
1042,NSW,Grayndler,Marrickville East,MARRICKVILLE,-33.9107189,151.1490807,POINT (-33.9107189 151.1490807)
1043,NSW,Grayndler,Marrickville GRAYNDLER PPVC,MARRICKVILLE,-33.9102463,151.1557588,POINT (-33.9102463 151.1557588)
1044,NSW,Grayndler,Marrickville North,MARRICKVILLE,-33.9023,151.155,POINT (-33.9023 151.155)
1045,NSW,Grayndler,Newtown East (Grayndler),NEWTOWN,-33.8999393,151.1793755,POINT (-33.8999393 151.1793755)
1046,NSW,Grayndler,Newtown GRAYNDLER PPVC,ENMORE,-33.8990766,151.1702933,POINT (-33.8990766 151.1702933)
1047,NSW,Grayndler,Newtown North (Grayndler),NEWTOWN,-33.8963885,151.1806596,POINT (-33.8963885 151.1806596)
1048,NSW,Grayndler,Newtown South,NEWTOWN,-33.9058,151.176,POINT (-33.9058 151.176)
1049,NSW,Grayndler,Petersham,PETERSHAM,-33.8957217,151.1579732,POINT (-33.8957217 151.1579732)
1050,NSW,Grayndler,Petersham East,PETERSHAM,-33.8896,151.159,POINT (-33.8896 151.159)
1051,NSW,Grayndler,Rozelle,ROZELLE,-33.8632,151.17,POINT (-33.8632 151.17)
1052,NSW,Grayndler,Rozelle Central,ROZELLE,-33.861695,151.1716248,POINT (-33.861695 151.1716248)
1053,NSW,Grayndler,Rozelle East,BALMAIN,-33.8633244,151.1779261,POINT (-33.8633244 151.1779261)
1054,NSW,Grayndler,St Peters,ST PETERS,-33.913,151.176,POINT (-33.913 151.176)
1055,NSW,Grayndler,Stanmore,STANMORE,-33.8953726,151.1645768,POINT (-33.8953726 151.1645768)
1056,NSW,Grayndler,Stanmore North,STANMORE,-33.89087,151.16252,POINT (-33.89087 151.16252)
1057,NSW,Grayndler,Summer Hill,SUMMER HILL,-33.8912492,151.136228,POINT (-33.8912492 151.136228)
1058,NSW,Grayndler,Summer Hill South,SUMMER HILL,-33.8958534,151.1364872,POINT (-33.8958534 151.1364872)
1059,NSW,Grayndler,Sydenham,SYDENHAM,-33.9156308,151.167481,POINT (-33.9156308 151.167481)
1060,NSW,Grayndler,Sydney (Grayndler),SYDNEY,-33.8730501,151.2064528,POINT (-33.8730501 151.2064528)
1061,NSW,Grayndler,Sydney GRAYNDLER PPVC,SYDNEY,-33.8701973,151.206944,POINT (-33.8701973 151.206944)
1062,NSW,Greenway,Acacia Gardens,ACACIA GARDENS,-33.7325,150.914,POINT (-33.7325 150.914)
1063,NSW,Greenway,Baulkham Hills GREENWAY PPVC,BAULKHAM HILLS,-33.76288,150.99212,POINT (-33.76288 150.99212)
1064,NSW,Greenway,Blacktown,BLACKTOWN,-33.79014,150.90159,POINT (-33.79014 150.90159)
1065,NSW,Greenway,Blacktown East,BLACKTOWN,-33.7890627,150.917704,POINT (-33.7890627 150.917704)
1066,NSW,Greenway,Blacktown GREENWAY PPVC,BLACKTOWN,-33.7691823,150.9075553,POINT (-33.7691823 150.9075553)
1067,NSW,Greenway,Blacktown North,BLACKTOWN,-33.7619,150.911,POINT (-33.7619 150.911)
1068,NSW,Greenway,Blacktown South (Greenway),BLACKTOWN,-33.78035,150.9058,POINT (-33.78035 150.9058)
1069,NSW,Greenway,BLV Greenway PPVC,PENRITH,-33.752017,150.690599,POINT (-33.752017 150.690599)
1070,NSW,Greenway,Divisional Office (PREPOLL),PENRITH,-33.752158,150.690381,POINT (-33.752158 150.690381)
1071,NSW,Greenway,Girraween,GIRRAWEEN,-33.7991,150.951,POINT (-33.7991 150.951)
1072,NSW,Greenway,Girraween West,GIRRAWEEN,-33.8002391,150.9383559,POINT (-33.8002391 150.9383559)
1073,NSW,Greenway,Glenwood,GLENWOOD,-33.7262,150.935,POINT (-33.7262 150.935)
1074,NSW,Greenway,Glenwood South,GLENWOOD,-33.733,150.937,POINT (-33.733 150.937)
1075,NSW,Greenway,Glenwood West,GLENWOOD,-33.7362,150.927,POINT (-33.7362 150.927)
1076,NSW,Greenway,Kellyville Ridge,KELLYVILLE RIDGE,-33.7049,150.924,POINT (-33.7049 150.924)
1077,NSW,Greenway,Kings Langley,KINGS LANGLEY,-33.7456,150.924,POINT (-33.7456 150.924)
1078,NSW,Greenway,Kings Langley North,KINGS LANGLEY,-33.7438,150.925,POINT (-33.7438 150.925)
1079,NSW,Greenway,Kings Park,KINGS PARK,-33.743605,150.904658,POINT (-33.743605 150.904658)
1080,NSW,Greenway,Lalor Park,LALOR PARK,-33.7609,150.932,POINT (-33.7609 150.932)
1081,NSW,Greenway,Lalor Park North,BLACKTOWN,-33.7544,150.926,POINT (-33.7544 150.926)
1083,NSW,Greenway,Pendle Hill (Greenway),PENDLE HILL,-33.8096,150.954,POINT (-33.8096 150.954)
1084,NSW,Greenway,Pendle Hill Central (Greenway),PENDLE HILL,-33.8068,150.954,POINT (-33.8068 150.954)
1085,NSW,Greenway,Prospect West,BLACKTOWN,-33.7944,150.912,POINT (-33.7944 150.912)
1086,NSW,Greenway,Quakers Hill East (Greenway),QUAKERS HILL,-33.7292,150.896,POINT (-33.7292 150.896)
1087,NSW,Greenway,Quakers Hill North,QUAKERS HILL,-33.7262,150.892,POINT (-33.7262 150.892)
1088,NSW,Greenway,Quakers Hill West,QUAKERS HILL,-33.7169,150.887,POINT (-33.7169 150.887)
1089,NSW,Greenway,Riverstone,RIVERSTONE,-33.6759,150.863,POINT (-33.6759 150.863)
1090,NSW,Greenway,Riverstone East,RIVERSTONE,-33.6792,150.875,POINT (-33.6792 150.875)
1091,NSW,Greenway,Schofields,SCHOFIELDS,-33.6923163,150.8749195,POINT (-33.6923163 150.8749195)
1092,NSW,Greenway,Schofields South,SCHOFIELDS,-33.7054297,150.8921129,POINT (-33.7054297 150.8921129)
1093,NSW,Greenway,Seven Hills,SEVEN HILLS,-33.7708,150.938,POINT (-33.7708 150.938)
1094,NSW,Greenway,Seven Hills Central,SEVEN HILLS,-33.7813,150.939,POINT (-33.7813 150.939)
1095,NSW,Greenway,Seven Hills East,SEVEN HILLS,-33.7626,150.945,POINT (-33.7626 150.945)
1096,NSW,Greenway,Seven Hills Heights,SEVEN HILLS,-33.7773,150.925,POINT (-33.7773 150.925)
1097,NSW,Greenway,Seven Hills North,SEVEN HILLS,-33.7595,150.955,POINT (-33.7595 150.955)
1098,NSW,Greenway,Seven Hills South,SEVEN HILLS,-33.786,150.934,POINT (-33.786 150.934)
1099,NSW,Greenway,Seven Hills West,SEVEN HILLS,-33.7663,150.922,POINT (-33.7663 150.922)
1100,NSW,Greenway,Stanhope Gardens,STANHOPE GARDENS,-33.71824,150.92127,POINT (-33.71824 150.92127)
1101,NSW,Greenway,Stanhope Gardens North,STANHOPE GARDENS,-33.7060186,150.9271088,POINT (-33.7060186 150.9271088)
1102,NSW,Greenway,Sydney (Greenway),SYDNEY,-33.8730501,151.2064528,POINT (-33.8730501 151.2064528)
1103,NSW,Greenway,The Ponds,THE PONDS,-33.70624,150.91331,POINT (-33.70624 150.91331)
1104,NSW,Greenway,The Ponds GREENWAY PPVC,THE PONDS,-33.7054811,150.9103614,POINT (-33.7054811 150.9103614)
1105,NSW,Greenway,The Ponds West,THE PONDS,-33.7066007,150.9021566,POINT (-33.7066007 150.9021566)
1106,NSW,Greenway,Toongabbie,TOONGABBIE,-33.7941,150.934,POINT (-33.7941 150.934)
1107,NSW,Greenway,Vineyard East (Greenway),VINEYARD,-33.6481,150.858,POINT (-33.6481 150.858)
1108,NSW,Hughes,Alfords Point,ALFORDS POINT,-33.9920907,151.0243465,POINT (-33.9920907 151.0243465)
1109,NSW,Hughes,Bangor,BANGOR,-34.0192867,151.0289173,POINT (-34.0192867 151.0289173)
1110,NSW,Hughes,Bangor North,BANGOR,-34.0145334,151.0261843,POINT (-34.0145334 151.0261843)
1111,NSW,Hughes,Bangor South,BANGOR,-34.0199254,151.0301461,POINT (-34.0199254 151.0301461)
1112,NSW,Hughes,Barden Ridge,BARDEN RIDGE,-34.0361776,151.0064578,POINT (-34.0361776 151.0064578)
1113,NSW,Hughes,BLV Hughes PPVC,MIRANDA,-34.03313,151.101818,POINT (-34.03313 151.101818)
1114,NSW,Hughes,Bonnet Bay,BONNET BAY,-34.0127882,151.0561757,POINT (-34.0127882 151.0561757)
1115,NSW,Hughes,Bundeena,BUNDEENA,-34.08456,151.14637,POINT (-34.08456 151.14637)
1116,NSW,Hughes,Central Sydney HUGHES PPVC,HAYMARKET,-33.8825375,151.2062488,POINT (-33.8825375 151.2062488)
1117,NSW,Hughes,Como West,COMO,-34.0048,151.061,POINT (-34.0048 151.061)
1118,NSW,Hughes,Divisional Office (PREPOLL),MIRANDA,-34.0332427,151.1027053,POINT (-34.0332427 151.1027053)
1119,NSW,Hughes,Engadine,ENGADINE,-34.0639,151.012,POINT (-34.0639 151.012)
1120,NSW,Hughes,Engadine East,ENGADINE,-34.0632,151.019,POINT (-34.0632 151.019)
1121,NSW,Hughes,Engadine HUGHES PPVC,ENGADINE,-34.0668419,151.0139349,POINT (-34.0668419 151.0139349)
1122,NSW,Hughes,Engadine North,ENGADINE,-34.0468,151.026,POINT (-34.0468 151.026)
1123,NSW,Hughes,Engadine South,ENGADINE,-34.0651084,151.0079057,POINT (-34.0651084 151.0079057)
1124,NSW,Hughes,Engadine West,ENGADINE,-34.059,151.003,POINT (-34.059 151.003)
1125,NSW,Hughes,Grays Point,GRAYS POINT,-34.058653,151.072202,POINT (-34.058653 151.072202)
1126,NSW,Hughes,Hammondville,HAMMONDVILLE,-33.9478,150.954,POINT (-33.9478 150.954)
1127,NSW,Hughes,Heathcote,HEATHCOTE,-34.08648,151.00712,POINT (-34.08648 151.00712)
1128,NSW,Hughes,Heathcote East,HEATHCOTE,-34.0824,151.012,POINT (-34.0824 151.012)
1129,NSW,Hughes,Holsworthy,HOLSWORTHY,-33.9558,150.955,POINT (-33.9558 150.955)
1130,NSW,Hughes,Holsworthy West,HOLSWORTHY,-33.955607,150.9505301,POINT (-33.955607 150.9505301)
1131,NSW,Hughes,Illawong,ILLAWONG,-33.9985,151.043,POINT (-33.9985 151.043)
1132,NSW,Hughes,Illawong North,ILLAWONG,-33.9973258,151.0425137,POINT (-33.9973258 151.0425137)
1133,NSW,Hughes,Jannali East,JANNALI,-34.018,151.073,POINT (-34.018 151.073)
1134,NSW,Hughes,Jannali West,JANNALI,-34.0227,151.062,POINT (-34.0227 151.062)
1135,NSW,Hughes,Kareela,KAREELA,-34.0131,151.083,POINT (-34.0131 151.083)
1136,NSW,Hughes,Kirrawee (Hughes),KIRRAWEE,-34.0331,151.078,POINT (-34.0331 151.078)
1137,NSW,Hughes,Kirrawee South,KIRRAWEE,-34.0436,151.075,POINT (-34.0436 151.075)
1138,NSW,Hughes,Liverpool HUGHES PPVC,LIVERPOOL,-33.9085725,150.9192846,POINT (-33.9085725 150.9192846)
1139,NSW,Hughes,Loftus,LOFTUS,-34.0460833,151.050958,POINT (-34.0460833 151.050958)
1140,NSW,Hughes,Menai,MENAI,-34.0114156,151.0064935,POINT (-34.0114156 151.0064935)
1141,NSW,Hughes,Menai Central,MENAI,-34.0149048,151.0172897,POINT (-34.0149048 151.0172897)
1142,NSW,Hughes,Menai North,ILLAWONG,-34.0029,151.027,POINT (-34.0029 151.027)
1143,NSW,Hughes,Miranda HUGHES PPVC,MIRANDA,-34.0341692,151.1036437,POINT (-34.0341692 151.1036437)
1144,NSW,Hughes,Moorebank,MOOREBANK,-33.9334,150.952,POINT (-33.9334 150.952)
1145,NSW,Hughes,Moorebank East,MOOREBANK,-33.9337952,150.9536153,POINT (-33.9337952 150.9536153)
1146,NSW,Hughes,Oyster Bay,OYSTER BAY,-34.0080767,151.0776226,POINT (-34.0080767 151.0776226)
1147,NSW,Hughes,Oyster Bay North,OYSTER BAY,-34.0060457,151.0810559,POINT (-34.0060457 151.0810559)
1150,NSW,Hughes,Sutherland,SUTHERLAND,-34.0318856,151.0595959,POINT (-34.0318856 151.0595959)
1151,NSW,Hughes,Sutherland East,SUTHERLAND,-34.03234,151.06361,POINT (-34.03234 151.06361)
1152,NSW,Hughes,Sutherland North,SUTHERLAND,-34.027,151.067,POINT (-34.027 151.067)
1153,NSW,Hughes,Sydney (Hughes),SYDNEY,-33.8730501,151.2064528,POINT (-33.8730501 151.2064528)
1154,NSW,Hughes,Wattle Grove,WATTLE GROVE,-33.9546,150.945,POINT (-33.9546 150.945)
1155,NSW,Hughes,Wattle Grove PPVC,WATTLE GROVE,-33.9556951,150.9450245,POINT (-33.9556951 150.9450245)
1156,NSW,Hughes,Wattle Grove South,WATTLE GROVE,-33.9586,150.937,POINT (-33.9586 150.937)
1157,NSW,Hughes,Woronora Heights,WORONORA HEIGHTS,-34.0334,151.026,POINT (-34.0334 151.026)
1158,NSW,Hughes,Woronora River,WORONORA,-34.0266,151.042,POINT (-34.0266 151.042)
1159,NSW,Hughes,Yarrawarrah,YARRAWARRAH,-34.0569,151.027,POINT (-34.0569 151.027)
1160,NSW,Hume,Appin,APPIN,-34.197805,150.787747,POINT (-34.197805 150.787747)
1161,NSW,Hume,Bargo,BARGO,-34.289,150.579,POINT (-34.289 150.579)
1162,NSW,Hume,Bargo Central,BARGO,-34.2827879,150.5804658,POINT (-34.2827879 150.5804658)
1163,NSW,Hume,Bigga,BIGGA,-34.0845,149.149,POINT (-34.0845 149.149)
1164,NSW,Hume,Binda,BINDA,-34.3309,149.367,POINT (-34.3309 149.367)
1165,NSW,Hume,BLV Hume PPVC,GOULBURN,-34.7503262,149.7195945,POINT (-34.7503262 149.7195945)
1166,NSW,Hume,Boorowa,BOOROWA,-34.4373,148.726,POINT (-34.4373 148.726)
1167,NSW,Hume,Bowral HUME PPVC,BOWRAL,-34.4798895,150.420363,POINT (-34.4798895 150.420363)
1168,NSW,Hume,Bradfordville,GOULBURN,-34.7233,149.741,POINT (-34.7233 149.741)
1169,NSW,Hume,Bringelly (Hume),BRINGELLY,-33.9387516,150.7285733,POINT (-33.9387516 150.7285733)
1170,NSW,Hume,Bundanoon,BUNDANOON,-34.6544,150.301,POINT (-34.6544 150.301)
1171,NSW,Hume,Bungonia,BUNGONIA,-34.8561075,149.9440108,POINT (-34.8561075 149.9440108)
1172,NSW,Hume,Buxton,BUXTON,-34.2482,150.548,POINT (-34.2482 150.548)
1173,NSW,Hume,Camden,CAMDEN,-34.0526,150.694,POINT (-34.0526 150.694)
1174,NSW,Hume,Camden Downs,CAMDEN SOUTH,-34.0842,150.691,POINT (-34.0842 150.691)
1175,NSW,Hume,Camden East,ELDERSLIE,-34.0606,150.712,POINT (-34.0606 150.712)
1176,NSW,Hume,Camden HUME PPVC,CAMDEN,-34.0531598,150.6936379,POINT (-34.0531598 150.6936379)
1177,NSW,Hume,Camden South,CAMDEN,-34.0691391,150.6943294,POINT (-34.0691391 150.6943294)
1178,NSW,Hume,Canyonleigh,CANYONLEIGH,-34.5843,150.15,POINT (-34.5843 150.15)
1179,NSW,Hume,Cawdor,CAWDOR,-34.0860956,150.6748594,POINT (-34.0860956 150.6748594)
1180,NSW,Hume,Cobbitty,COBBITTY,-34.0159,150.686,POINT (-34.0159 150.686)
1181,NSW,Hume,Collector,COLLECTOR,-34.9161,149.436,POINT (-34.9161 149.436)
1182,NSW,Hume,Colo Vale,COLO VALE,-34.4005,150.487,POINT (-34.4005 150.487)
1183,NSW,Hume,Crookwell,CROOKWELL,-34.4599,149.47,POINT (-34.4599 149.47)
1184,NSW,Hume,Dalton,DALTON,-34.7205,149.18,POINT (-34.7205 149.18)
1185,NSW,Hume,Divisional Office (PREPOLL),GOULBURN,-34.7509335,149.720524,POINT (-34.7509335 149.720524)
